     3.02           OBSERVATION DATA    M: Mixed            RINEX VERSION / TYPE
RTKCONV-EX 2.5.0                        20251108 141620 UTC PGM / RUN BY / DATE 
format: u-blox UBX                                          COMMENT             
log: Y:\blockx.ubx                                          COMMENT             
                                                            MARKER NAME         
                                                            MARKER NUMBER       
                                                            MARKER TYPE         
                                                            OBSERVER / AGENCY   
                                                            REC # / TYPE / VERS 
                                                            ANT # / TYPE        
 -2418213.4562  5385759.2096  2405764.7978                  APPROX POSITION XYZ 
        0.0000        0.0000        0.0000                  ANTENNA: DELTA H/E/N
G    8 C1C L1C D1C S1C C2X L2X D2X S2X                      SYS / # / OBS TYPES 
R    8 C1C L1C D1C S1C C2C L2C D2C S2C                      SYS / # / OBS TYPES 
E    8 C1X L1X D1X S1X C7X L7X D7X S7X                      SYS / # / OBS TYPES 
J    8 C1C L1C D1C S1C C2X L2X D2X S2X                      SYS / # / OBS TYPES 
S    4 C1C L1C D1C S1C                                      SYS / # / OBS TYPES 
C    8 C1I L1I D1I S1I C7I L7I D7I S7I                      SYS / # / OBS TYPES 
  2025    11    08    14    13   06.9970000     GPS         TIME OF FIRST OBS   
  2025    11    08    14    14   25.9970000     GPS         TIME OF LAST OBS    
G L1C                                                       SYS / PHASE SHIFT   
G L2X  0.00000                                              SYS / PHASE SHIFT   
R L1C                                                       SYS / PHASE SHIFT   
R L2C                                                       SYS / PHASE SHIFT   
E L1X  0.00000                                              SYS / PHASE SHIFT   
E L7X  0.00000                                              SYS / PHASE SHIFT   
J L1C                                                       SYS / PHASE SHIFT   
J L2X  0.00000                                              SYS / PHASE SHIFT   
S L1C                                                       SYS / PHASE SHIFT   
C L1I                                                       SYS / PHASE SHIFT   
C L7I                                                       SYS / PHASE SHIFT   
  7 R05  1 R06 -4 R10 -7 R11  0 R12 -1 R21  4 R22 -3        GLONASS SLOT / FRQ #
 C1C    0.000 C1P    0.000 C2C    0.000 C2P    0.000        GLONASS COD/PHS/BIS 
                                                            END OF HEADER       
> 2025 11 08 14 13 06.9970000  0 33                     
S37  35535697.490   186741332.3001       -212.031          40.000  
J07  35535702.220   186741382.601        -212.428          36.000                                                                  
S29  35931843.193   188823080.796        -213.465          45.000  
G01  21687364.363   113967845.7331      -3188.360          40.000    21687358.768    88806105.1701      -2484.368          39.000  
G03  20463346.554   107535619.990        -193.004          46.000    20463344.552    83793981.848        -150.513          42.000  
G14  19068963.067   100208044.5241        853.707          45.000    19068956.475    78084188.4991        665.230          46.000  
C09  35743175.849   186124095.9321      -1474.248          43.000    35743173.847   143922943.4951      -1139.931          44.000  
C06  36564110.643   190398916.554       -1797.580          41.000    36564107.383   147228512.2192      -1390.120          39.000  
C07  35604989.178   185404524.370          18.196          42.000    35604979.220   143366494.8402         14.103          44.000  
C25  20720508.568   107897126.0941       -618.599          47.000                                                                  
C24  22937927.404   119443842.2091      -3167.664          44.000                                                                  
C34  21683637.145   112912394.3941      -1418.080          45.000                                                                  
R12  21220272.587   113354886.4431       3511.024          41.000    21220266.924    88164887.243        2730.542          41.000  
R11  18199463.674    97252413.5951       -110.759          50.000    18199455.823    75640733.996         -86.182          46.000  
R21  20251284.730   108368713.1151      -2538.512          49.000    20251275.652    84286739.319       -1974.456          43.000  
R22  19781306.419   105593935.316         230.340          38.000    19781318.889    82128647.668         179.416          36.000  
R10  20284746.880   108129116.044       -3735.812          41.000                                                                  
G17  21048557.539   110610880.771         341.670          44.000    21048550.401    86190303.163         266.489          41.000  
G22  20380965.707   107102665.7511       1715.909          45.000                                                                  
G30  21468333.972   112816827.8521      -2685.188          42.000    21468336.025    87909225.8061      -2092.336          37.000  
J02  36903719.609   193930367.305         930.909          42.000                                                                  
J03  37977708.627   199574205.6511       -989.612          44.000                                                                  
E13  23310072.167   122495245.400        1022.604          45.000    23310074.380    93860009.489         783.424          45.000  
C40  36075727.421   187855779.9661        -79.125          45.000                                                                  
C10  36441135.702   189758553.181          31.646          41.000    36441130.181   146733324.082          24.398          45.000  
G06  21124891.103                        1686.476          31.000                                                                  
G07  22532786.664   118410658.691       -3294.510          33.000                                                                  
E15  22772167.768   119668549.108       -1505.710          45.000    22772167.235    91694080.260       -1153.811          45.000  
S28  36331537.273   190923518.791        -218.253          44.000  
E18  19272019.664   101275151.731        3102.426          48.000    19272016.867    77600425.787        2377.180          45.000  
E27  22959926.884   120655217.715        1026.569          44.000                                                                  
G19  21614458.235   113584744.276        1249.583          41.000                                                                  
E30  23383016.603   122878571.070       -1279.712          42.000                                                                  
> 2025 11 08 14 13 07.9970000  0 33                     
S37  35535737.830   186741544.080        -211.472          40.000  
J07  35535742.510   186741594.366        -211.505          36.000    35535748.129   145512947.4541       -164.242          40.000  
S29  35931883.822   188823293.968        -213.056          45.000  
G01  21687971.033   113971033.918       -3187.935          40.000    21687965.511    88808589.480       -2484.320          39.000  
G03  20463383.344   107535813.077        -193.397          46.000    20463381.342    83794132.301        -150.547          42.000  
G14  19068800.746   100207191.088         853.286          45.000    19068794.142    78083523.486         664.959          46.000  
C09  35743458.976   186125569.962       -1473.818          43.000    35743456.912   143924083.302       -1139.718          44.000  
C06  36564455.801   190400714.058       -1797.318          41.000    36564452.116   147229902.1442      -1389.565          39.000  
C07  35604985.479   185404505.942          18.536          42.000    35604975.511   143366480.5722         14.482          43.000  
C25  20720627.330   107897744.689        -618.635          47.000                                                                  
C24  22938535.554   119447009.687       -3167.456          44.000                                                                  
C34  21683909.428   112913812.163       -1417.600          45.000                                                                  
R12  21219615.319   113351375.573        3510.655          41.000    21219609.640    88162156.567        2730.483          41.000  
R11  18199484.317    97252524.604        -111.211          50.000    18199476.617    75640820.333         -86.393          46.000  
R21  20251758.858   108371251.467       -2538.161          48.000    20251750.061    84288713.587       -1973.861          43.000  
R22  19781263.513   105593704.805         230.289          40.000    19781275.627    82128468.364         179.103          36.000  
R10  20285447.634   108132851.588       -3735.162          41.000                                                                  
G17  21048492.479   110610538.950         342.051          44.000    21048485.386    86190036.821         266.447          41.000  
G22  20380639.139   107100949.837        1715.881          45.000                                                                  
G30  21468844.975   112819512.925       -2685.089          42.000    21468847.077    87911318.058       -2092.053          37.000  
J02  36903542.418   193929436.152         931.439          42.000    36903540.194   151113827.594         725.543          44.000  
J03  37977896.911   199575195.186        -989.447          44.000    37978016.299   155513627.241        -771.149          38.000  
E13  23309877.447   122494222.838        1022.700          45.000    23309879.792    93859225.990         783.330          45.000  
C40  36075742.527   187855858.837         -78.736          45.000                                                                  
C10  36441129.492   189758521.426          31.920          41.000    36441124.033   146733299.536          24.753          44.000  
G06  21124570.324   111010369.798        1686.818          31.000    21124634.181    86501844.754        1313.082          30.000  
G07  22533413.256   118413953.011       -3294.263          34.000                                                                  
E15  22772454.315   119670054.999       -1505.831          45.000    22772454.336    91695234.114       -1153.752          46.000  
S28  36331578.713   190923736.596        -217.543          44.000  
E18  19271429.301   101272049.443        3102.339          48.000    19271426.529    77598048.705        2377.277          46.000  
E27  22959731.432   120654191.247        1026.573          44.000                                                                  
G19  21614220.431   113583494.648        1249.717          41.000                                                                  
E30  23383259.841   122879850.766       -1279.767          42.000                                                                  
> 2025 11 08 14 13 08.9970000  0 33                     
S37  35535778.229   186741755.641        -211.077          40.000  
J07  35535782.625   186741805.938        -211.237          36.000    35535781.623   145513112.324        -164.594          40.000  
S29  35931924.318   188823506.910        -212.677          45.000  
G01  21688577.781   113974221.976       -3188.492          40.000    21688572.161    88811073.657       -2483.911          39.000  
G03  20463420.308   107536006.570        -193.362          46.000    20463418.195    83794283.089        -150.874          41.000  
G14  19068638.436   100206337.889         853.493          45.000    19068631.889    78082858.665         664.836          46.000  
C09  35743742.035   186127043.883       -1473.391          43.000    35743739.888   143925223.029       -1139.492          44.000  
C06  36564800.988   190402511.397       -1796.755          41.000    36564797.345   147231291.9712      -1389.378          39.000  
C07  35604981.791   185404487.181          19.374          42.000    35604971.976   143366466.0762         14.572          44.000  
C25  20720746.246   107898363.555        -618.682          47.000                                                                  
C24  22939143.757   119450177.139       -3167.169          44.000                                                                  
C34  21684181.718   112915229.669       -1417.070          45.000                                                                  
R12  21218958.112   113347864.751        3510.616          42.000    21218952.494    88159425.912        2730.693          42.000  
R11  18199505.174    97252636.231        -111.555          49.000    18199497.524    75640907.149         -86.797          46.000  
R21  20252233.130   108373789.589       -2537.836          47.000    20252224.288    84290687.703       -1973.946          44.000  
R22  19781220.705   105593474.440         230.587          44.000    19781232.345    82128289.160         179.629          35.000  
R10  20286148.415   108136587.467       -3735.740          40.000                                                                  
G17  21048427.382   110610196.839         342.367          44.000    21048420.276    86189770.234         266.707          41.000  
G22  20380312.671   107099233.946        1715.978          45.000                                                                  
G30  21469355.891   112822197.992       -2684.621          42.000    21469358.183    87913410.334       -2092.056          37.000  
J02  36903365.193   193928504.748         931.770          42.000    36903363.331   151113101.823         726.085          44.000  
J03  37978085.117   199576184.422        -988.971          44.000    37978082.328   155514398.076        -770.624          42.000  
E13  23309683.218   122493200.410        1022.772          45.000    23309685.371    93858442.555         783.636          46.000  
C40  36075757.553   187855937.320         -78.055          45.000                                                                  
C10  36441123.138   189758489.351          32.339          41.000    36441117.873   146733274.717          25.121          45.000  
G06  21124249.275   111008683.697        1686.366          32.000    21124293.141    86500530.866        1314.578          31.000  
G07  22534039.891   118417247.065       -3293.318          33.000    22534096.360    92273357.136       -2567.453          27.000  
E15  22772741.024   119671560.903       -1505.690          45.000    22772740.803    91696387.985       -1153.669          46.000  
S28  36331620.223   190923954.222        -217.301          44.000  
E18  19270838.833   101268947.100        3102.638          47.000    19270836.609    77595671.593        2377.221          46.000  
E27  22959535.942   120653164.771        1026.872          44.000                                                                  
G19  21613982.653   113582244.707        1250.184          41.000                                                                  
E30  23383503.345   122881130.543       -1279.417          42.000                                                                  
> 2025 11 08 14 13 09.9970000  0 33                     
S37  35535818.331   186741966.939        -211.191          39.000  
J07  35535822.764   186742017.168        -210.417          36.000    35535818.812   145513276.968        -164.607          40.000  
S29  35931964.816   188823719.595        -212.628          45.000  
G01  21689184.421   113977409.864       -3187.788          41.000    21689178.749    88813557.759       -2483.906          39.000  
G03  20463457.263   107536200.486        -194.391          46.000    20463455.027    83794434.181        -151.211          42.000  
G14  19068476.223   100205485.008         852.708          45.000    19068469.559    78082194.076         664.489          46.000  
C09  35744025.176   186128517.682       -1473.587          43.000    35744022.953   143926362.666       -1139.605          44.000  
C06  36565146.196   190404308.528       -1796.941          42.000    36565142.484   147232681.1341      -1389.545          39.000  
C07  35604978.148   185404468.141          19.135          42.000    35604968.508   143366450.8511         14.711          44.000  
C25  20720865.163   107898982.730        -619.318          47.000                                                                  
C24  22939751.897   119453344.504       -3167.401          44.000                                                                  
C34  21684454.074   112916647.027       -1417.164          45.000                                                                  
R12  21218300.871   113344354.083        3510.689          41.000    21218295.431    88156695.395        2730.482          42.000  
R11  18199526.289    97252748.515        -112.491          50.000    18199518.497    75640994.488         -87.615          46.000  
R21  20252707.254   108376327.607       -2537.864          48.000    20252698.721    84292661.727       -1974.015          44.000  
R22  19781177.878   105593244.237         230.244          46.000    19781189.110    82128110.135         178.972          35.000  
R10  20286849.375   108140323.522       -3736.262          41.000                                                                  
G17  21048362.214   110609854.497         342.586          44.000    21048355.140    86189503.481         266.824          41.000  
G22  20379986.121   107097518.141        1715.802          45.000                                                                  
G30  21469866.768   112824882.973       -2684.983          42.000    21469869.209    87915502.548       -2092.198          37.000  
J02  36903187.901   193927573.116         931.691          43.000    36903186.321   151112375.865         726.054          44.000  
J03  37978273.294   199577173.399        -988.831          44.000    37978265.897   155515168.712        -770.490          43.000  
E13  23309488.765   122492178.085        1022.296          45.000    23309490.786    93857659.216         783.425          45.000  
C40  36075772.853   187856015.520         -78.053          45.000                                                                  
C10  36441117.013   189758456.961          32.719          42.000    36441111.713   146733249.668          25.386          45.000  
G06  21123928.610   111006997.785        1686.243          32.000    21123957.568    86499217.196        1313.157          30.000  
G07  22534666.452   118420540.888       -3293.838          33.000    22534701.162    92275923.664       -2566.407          28.000  
E15  22773027.604   119673066.865       -1506.051          45.000    22773027.337    91697541.915       -1153.941          46.000  
S28  36331661.614   190924171.632        -217.111          45.000  
E18  19270248.343   101265844.776        3102.227          47.000    19270245.325    77593294.486        2377.172          46.000  
E27  22959340.426   120652138.320        1026.417          44.000                                                                  
G19  21613744.763   113580994.570        1250.402          41.000                                                                  
E30  23383746.738   122882410.413       -1280.037          42.000                                                                  
> 2025 11 08 14 13 10.9970000  0 33                     
S37  35535858.522   186742178.059        -211.235          39.000  
J07  35535862.758   186742228.335        -210.962          35.000    35535858.197   145513441.462        -164.188          40.000  
S29  35932005.230   188823932.134        -212.327          45.000  
G01  21689791.007   113980597.670       -3187.816          41.000    21689785.434    88816041.779       -2483.927          38.000  
G03  20463494.269   107536394.803        -194.244          46.000    20463491.962    83794585.619        -151.241          41.000  
G14  19068313.979   100204632.458         852.367          45.000    19068307.269    78081529.742         664.306          46.000  
C09  35744308.187   186129991.459       -1473.655          43.000    35744306.008   143927502.294       -1139.706          44.000  
C06  36565491.399   190406105.565       -1796.925          42.000    36565487.609   147234070.712       -1389.742          39.000  
C07  35604974.578   185404448.841          19.673          42.000    35604964.867   143366435.911          15.188          44.000  
C25  20720984.126   107899602.265        -619.609          47.000                                                                  
C24  22940360.113   119456511.898       -3167.242          44.000                                                                  
C34  21684726.330   112918064.166       -1416.708          45.000                                                                  
R12  21217643.666   113340843.591        3510.558          41.000    21217638.242    88153965.001        2730.781          41.000  
R11  18199547.212    97252861.516        -113.280          50.000    18199539.588    75641082.372         -88.091          46.000  
R21  20253181.320   108378865.449       -2537.469          48.000    20253173.052    84294635.619       -1973.793          44.000  
R22  19781135.226   105593014.256         230.055          47.000    19781145.746    82127931.274         178.980          34.000  
R10  20287550.288   108144059.878       -3736.809          42.000                                                                  
G17  21048296.998   110609511.960         342.815          44.000    21048289.980    86189236.554         267.342          41.000  
G22  20379659.655   107095802.457        1715.677          45.000                                                                  
G30  21470377.685   112827568.030       -2685.025          42.000    21470380.220    87917594.781       -2092.333          37.000  
J02  36903010.526   193926641.244         932.188          43.000    36903008.492   151111649.739         726.317          44.000  
J03  37978461.502   199578162.128        -988.263          44.000    37978456.216   155515939.159        -770.142          43.000  
E13  23309294.160   122491155.955        1022.000          45.000    23309295.970    93856876.046         783.055          45.000  
C40  36075787.848   187856093.412         -77.455          45.000                                                                  
C10  36441110.755   189758424.322          32.872          42.000    36441105.431   146733224.437          25.497          45.000  
G06  21123607.777   111005312.254        1684.734          32.000    21123627.457    86497903.723        1312.694          31.000  
G07  22535293.082   118423834.485       -3293.506          33.000    22535312.192    92278490.074       -2565.421          30.000  
E15  22773314.394   119674572.914       -1505.872          45.000    22773313.890    91698695.891       -1153.858          46.000  
S28  36331702.826   190924388.792        -216.959          45.000  
E18  19269658.067   101262742.455        3102.441          47.000    19269655.299    77590917.398        2377.088          46.000  
E27  22959144.741   120651111.907        1026.649          44.000                                                                  
G19  21613506.793   113579744.241        1250.629          41.000                                                                  
E30  23383990.287   122883690.382       -1279.898          42.000                                                                  
> 2025 11 08 14 13 11.9970000  0 33                     
S37  35535898.682   186742388.578        -209.875          42.000  
J07  35535902.947   186742438.853        -209.778          39.000    35535897.665   145513605.575        -163.783          41.000  
S29  35932045.697   188824144.869        -213.365          45.000  
G01  21690397.385   113983784.303       -3185.766          41.000    21690391.668    88818524.857       -2482.256          37.000  
G03  20463531.169   107536588.504        -192.350          47.000    20463528.756    83794736.570        -150.614          41.000  
G14  19068151.782   100203779.911         852.593          43.000    19068145.129    78080865.409         664.147          45.000  
C09  35744591.333   186131465.640       -1474.792          43.000    35744588.997   143928642.170       -1140.376          44.000  
C06  36565836.501   190407902.815       -1797.643          42.000    36565832.784   147235460.438       -1389.729          40.000  
C07  35604970.723   185404428.915          19.971          42.000    35604961.084   143366420.518          15.529          44.000  
C25  20721103.141   107900222.374        -620.842          47.000                                                                  
C24  22940968.422   119459679.093       -3168.311          46.000                                                                  
C34  21684998.582   112919480.441       -1416.039          46.000                                                                  
R12  21216986.579   113337333.132        3509.050          40.000    21216981.127    88151234.681        2729.470          41.000  
R11  18199568.545    97252975.112        -113.865          50.000    18199560.847    75641170.711         -88.703          45.000  
R21  20253655.275   108381402.405       -2536.583          48.000    20253647.013    84296608.790       -1973.502          44.000  
R22  19781092.576   105592785.070         223.115          39.000    19781102.520    82127753.090         174.625          34.000  
R10  20288251.268   108147796.311       -3735.649          43.000                                                                  
G17  21048231.612   110609168.974         342.823          44.000    21048224.708    86188969.379         266.566          41.000  
G22  20379333.130   107094086.669        1715.024          45.000                                                                  
G30  21470888.790   112830253.592       -2685.399          43.000    21470891.256    87919687.348       -2092.904          37.000  
J02  36902833.004   193925708.471         933.589          44.000    36902831.171   151110922.868         727.739          44.000  
J03  37978649.393   199579149.901        -987.286          44.000    37978644.693   155516708.818        -768.799          43.000  
E13  23309099.716   122490134.436        1020.526          45.000    23309101.543    93856093.324         782.288          45.000  
C40  36075802.791   187856170.444         -76.885          45.000                                                                  
C10  36441104.391   189758391.309          32.732          40.000    36441099.146   146733198.945          25.140          45.000  
G06  21123287.427   111003627.379        1685.848          33.000    21123299.732    86496590.923        1310.830          30.000  
G07  22535919.828   118427128.152       -3290.914          36.000    22535935.469    92281056.540       -2565.509          30.000  
E15  22773600.737   119676078.501       -1505.372          44.000    22773600.639    91699849.526       -1153.427          45.000  
S28  36331744.199   190924606.267        -218.647          44.000  
E18  19269067.008   101259639.659        3102.613          46.000    19269065.199    77588539.918        2377.738          46.000  
E27  22958950.092   120650085.221        1026.694          45.000                                                                  
G19  21613268.912   113578493.978        1248.902          40.000                                                                  
E30  23384234.415   122884969.708       -1277.943          43.000                                                                  
> 2025 11 08 14 13 12.9970000  0 33                     
S37  35535938.664   186742598.082        -209.330          41.000  
J07  35535942.890   186742648.379        -209.453          37.000    35535937.724   145513768.757        -161.440          41.000  
S29  35932086.544   188824358.807        -213.941          45.000  
G01  21691003.279   113986968.382       -3183.583          40.000    21690997.596    88821005.998       -2480.997          34.000  
G03  20463567.641   107536780.035        -190.150          43.000    20463565.030    83794885.814        -147.872          38.000  
G14  19067989.469   100202927.225         852.273          43.000    19067982.904    78080200.965         664.291          46.000  
C09  35744874.536   186132941.287       -1476.086          43.000    35744872.363   143929783.197       -1141.359          44.000  
C06  36566181.898   190409701.230       -1797.823          42.000    36566178.236   147236851.047       -1390.181          41.000  
C07  35604966.612   185404408.168          20.964          42.000    35604957.210   143366404.481          15.840          43.000  
C25  20721222.286   107900843.596        -621.344          46.000                                                                  
C24  22941576.799   119462846.128       -3168.762          46.000                                                                  
C34  21685270.210   112920894.930       -1414.393          47.000                                                                  
R12  21216329.456   113333823.373        3509.003          42.000    21216324.063    88148504.868        2728.884          43.000  
R11  18199589.856    97253089.354        -114.990          49.000    18199582.123    75641259.519         -88.705          46.000  
R21  20254129.177   108383937.924       -2535.067          48.000    20254120.768    84298580.819       -1972.273          42.000  
R22  19781050.033   105592556.980         231.515          44.000    19781059.839    82127576.416         175.945          31.000  
R10  20288952.248   108151532.631       -3735.056          44.000                                                                  
G17  21048166.362   110608825.905         343.641          40.000    21048159.410    86188702.058         267.286          41.000  
G22  20379006.654   107092370.833        1715.159          44.000                                                                  
G30  21471400.308   112832940.918       -2688.017          44.000    21471402.708    87921781.426       -2094.161          39.000  
J02  36902655.089   193924773.586         935.403          44.000    36902652.945   151110194.437         728.231          43.000  
J03  37978836.900   199580135.621        -985.144          43.000    37978832.615   155517476.909        -767.987          45.000  
E13  23308905.697   122489114.514        1019.700          46.000    23308908.027    93855311.900         781.006          48.000  
C40  36075817.270   187856246.033         -75.280          45.000                                                                  
C10  36441098.177   189758358.239          33.690          40.000    36441092.788   146733173.369          25.229          43.000  
G06  21122967.536   111001945.046        1681.914          36.000    21122977.691    86495279.886        1311.356          34.000  
G07  22536547.820                       -3296.964          38.000    22536559.135    92283623.520       -2568.438          33.000  
E15  22773887.067   119677583.000       -1504.034          44.000    22773887.097    91701002.332       -1153.155          46.000  
S28  36331785.905   190924825.344        -219.374          44.000  
E18  19268476.339   101256535.910        3103.776          45.000    19268474.342    77586161.742        2378.164          45.000  
E27  22958755.047   120649058.044        1027.237          44.000                                                                  
G19  21613031.287   113577244.919        1248.382          38.000                                                                  
E30  23384478.340   122886247.392       -1277.170          43.000                                                                  
> 2025 11 08 14 13 13.9970000  0 33                     
S37  35535978.433   186742807.149        -208.107          42.000  
J07  35535982.819   186742857.452        -208.312          38.000    35535977.519   145513931.627        -160.796          38.000  
S29  35932127.303   188824573.191        -213.354          44.000  
G01  21691609.100   113990151.770       -3182.839          36.000    21691603.360    88823486.603       -2480.646          33.000  
G03  20463603.970   107536971.085        -190.184          42.000    20463601.326    83795034.608        -146.276          35.000  
G14  19067827.278   100202075.027         852.377          43.000    19067820.774    78079536.984         664.196          46.000  
C09  35745158.054   186134417.519       -1475.761          41.000    35745155.866   143930924.752       -1140.920          45.000  
C06  36566527.216   190411499.918       -1798.463          42.000    36566523.726   147238241.928       -1390.100          43.000  
C07  35604962.687   185404387.494          21.368          41.000    35604953.245   143366388.481          16.802          44.000  
C25  20721341.806   107901465.841        -621.952          47.000                                                                  
C24  22942185.228   119466012.721       -3164.178          43.000                                                                  
C34  21685541.967   112922309.031       -1414.001          46.000                                                                  
R12  21215672.417   113330314.421        3508.007          46.000    21215667.008    88145775.580        2729.612          43.000  
R11  18199611.334    97253204.580        -114.534          48.000    18199603.665    75641349.159         -88.757          45.000  
R21  20254602.827   108386473.217       -2535.361          48.000    20254594.456    84300552.662       -1972.188          42.000  
R22  19781007.905   105592362.8553        224.606          44.000    19781017.054    82127400.591         175.958          39.000  
R10  20289653.036   108155268.747       -3732.901          41.000                                                                  
G17  21048101.203   110608483.163         343.510          42.000    21048094.233    86188434.954         266.763          41.000  
G22  20378680.251   107090655.578        1715.650          44.000                                                                  
G30  21471911.866   112835628.821       -2686.996          44.000    21471914.353    87923875.856       -2094.309          39.000  
J02  36902477.050   193923837.982         936.865          42.000    36902474.627   151109465.412         729.360          44.000  
J03  37979024.307   199581120.697        -983.862          42.000    37979019.756   155518244.578        -767.352          44.000  
E13  23308711.695   122488095.609        1019.306          45.000    23308714.091    93854531.174         781.409          47.000  
C40  36075831.841   187856321.409         -74.597          44.000                                                                  
C10  36441091.743   189758325.562          33.390          40.000    36441086.468   146733148.052          25.598          43.000  
G06  21122647.881   111000263.823        1681.116          36.000    21122654.585    86493969.889        1309.709          34.000  
G07  22537174.789   118433651.6593      -3293.965          42.000    22537184.311    92286190.129       -2565.210          35.000  
E15  22774173.020   119679087.578       -1503.434          43.000    22774173.542    91702155.210       -1152.470          45.000  
S28  36331827.693   190925045.053        -219.586          44.000  
E18  19267885.658   101253432.376        3103.726          46.000    19267883.757    77583783.689        2378.305          46.000  
E27  22958559.397   120648031.162        1027.673          43.000                                                                  
G19  21612793.758   113575996.566        1248.284          38.000                                                                  
E30  23384721.725   122887524.462       -1275.731          44.000                                                                  
> 2025 11 08 14 13 14.9970000  0 33                     
S37  35536018.235   186743016.138        -209.137          42.000  
J07  35536022.667   186743066.411        -208.951          38.000    35536017.250   145514094.616        -162.899          40.000  
S29  35932168.235   188824787.509        -214.884          45.000  
G01  21692215.096   113993335.778       -3182.415          33.000    21692209.104    88825967.615       -2480.399          32.000  
G03  20463640.443   107537163.006        -190.873          42.000    20463637.797    83795184.315        -148.619          35.000  
G14  19067665.326   100201223.727         852.357          44.000    19067658.823    78078873.601         663.824          46.000  
C09  35745441.414   186135893.730       -1477.224          41.000    35745439.398   143932066.234       -1141.861          45.000  
C06  36566872.364   190413298.288       -1800.288          39.000    36566869.136   147239632.577       -1391.434          41.000  
C07  35604958.760   185404367.100          21.653          41.000    35604949.414   143366372.664          17.747          43.000  
C25  20721461.325   107902088.691        -622.964          47.000                                                                  
C24  22942793.590   119469179.334       -3168.659          43.000                                                                  
C34  21685813.811   112923723.587       -1412.636          47.000                                                                  
R12  21215015.446   113326805.991        3510.423          45.000    21215010.268    88143046.927        2729.126          44.000  
R11  18199633.026    97253320.906        -116.030          50.000    18199625.511    75641439.677         -90.576          46.000  
R21  20255076.522   108389008.975       -2533.598          50.000    20255068.336    84302524.888       -1970.064          41.000  
R22  19780965.846   105592137.2802        226.896          45.000    19780974.244    82127225.268         175.126          38.000  
R10  20290353.908   108159005.269       -3738.525          44.000                                                                  
G17  21048035.974   110608140.748         344.255          44.000    21048029.096    86188168.116         267.741          40.000  
G22  20378353.990   107088940.956        1716.013          44.000                                                                  
G30  21472423.400   112838316.497       -2689.322          45.000    21472425.847    87925970.149       -2095.864          39.000  
J02  36902299.034   193922902.635         936.651          42.000    36902296.267   151108736.513         729.445          44.000  
J03  37979211.808   199582106.134        -983.716          42.000    37979207.632   155519012.394        -766.809          45.000  
E13  23308517.862   122487076.928        1018.022          45.000    23308520.310    93853750.614         780.120          46.000  
C40  36075846.416   187856397.068         -73.714          44.000                                                                  
C10  36441085.290   189758293.086          32.967          41.000    36441080.189   146733122.915          25.767          42.000  
G06  21122328.172   110998582.822        1680.239          39.000    21122334.168    86492660.046        1309.150          37.000  
G07  22537801.554   118436945.1532      -3296.696          43.000    22537806.441    92288756.429       -2566.252          32.000  
E15  22774459.448   119680592.903       -1504.068          44.000    22774460.071    91703308.618       -1152.615          46.000  
S28  36331869.439   190925264.703        -220.427          46.000  
E18  19267295.117   101250329.409        3104.090          46.000    19267293.282    77581406.094        2378.636          47.000  
E27  22958364.134   120647004.891        1027.583          43.000                                                                  
G19  21612556.202   113574748.388        1249.183          39.000                                                                  
E30  23384965.025   122888801.948       -1277.553          43.000                                                                  
> 2025 11 08 14 13 15.9970000  0 33                     
S37  35536058.136   186743225.150        -210.294          43.000  
J07  35536062.509   186743275.403        -209.744          39.000    35536057.084   145514257.452        -163.286          40.000  
S29  35932209.138   188825001.948        -215.760          44.000  
G01  21692822.618                1      -3185.855          33.000    21692815.044    88828448.484       -2478.914          31.000  
G03  20463677.029   107537355.489        -193.514          45.000    20463674.320    83795334.177        -150.100          34.000  
G14  19067503.376   100200372.936         850.039          43.000    19067496.959    78078210.643         662.330          47.000  
C09  35745724.922   186137370.221       -1478.135          42.000    35745722.908   143933207.922       -1142.773          45.000  
C06  36567217.896   190415096.883       -1799.167          40.000    36567214.634   147241023.337       -1391.745          43.000  
C07  35604954.874   185404346.674          19.310          41.000    35604945.609   143366356.873          15.354          45.000  
C25  20721580.989   107902712.168        -624.835          47.000                                                                  
C24  22943401.958   119472345.987       -3167.316          43.000                                                                  
C34  21686085.464   112925138.158       -1414.700          47.000                                                                  
R12  21214358.714   113323298.150        3507.437          45.000    21214353.456    88140318.600        2728.752          43.000  
R11  18199654.916    97253438.154        -118.648          50.000    18199647.513    75641530.856         -91.998          44.000  
R21  20255550.393   108391544.859       -2535.968          48.000    20255542.235    84304497.294       -1973.294          43.000  
R22  19780924.048   105591912.5022        221.975          44.000    19780931.514    82127050.325         174.646          39.000  
R10  20291054.975   108162742.078       -3738.316          42.000                                                                  
G17  21047970.931   110607798.381         342.470          45.000    21047963.931    86187901.344         266.010          40.000  
G22  20378027.889   107087226.666        1714.151          45.000                                                                  
G30  21472934.965   112841004.544       -2689.105          45.000    21472937.345    87928064.717       -2095.696          38.000  
J02  36902121.045   193921967.145         935.093          40.000    36902118.200   151108007.603         728.543          44.000  
J03  37979399.229   199583091.437        -985.937          43.000    37979394.927   155519780.151        -767.596          45.000  
E13  23308323.922   122486058.704        1017.147          45.000    23308326.598    93852970.425         778.910          47.000  
C40  36075860.992   187856472.652         -75.390          45.000                                                                  
C10  36441079.219   189758260.602          32.435          41.000    36441074.000   146733097.815          24.571          43.000  
G06  21122008.525   110996902.539        1678.966          41.000    21122013.959    86491350.745        1308.413          39.000  
G07  22538428.240   118440238.6962      -3295.510          46.000    22538433.680    92291322.896       -2564.750          36.000  
E15  22774746.016   119682098.395       -1505.952          44.000    22774746.550    91704462.166       -1153.967          46.000  
S28  36331911.113   190925484.527        -221.069          44.000  
E18  19266704.745   101247226.673        3102.118          46.000    19266703.014    77579028.677        2377.126          46.000  
E27  22958168.840   120645978.837        1025.819          43.000                                                                  
G19  21612318.732   113573500.422        1247.592          38.000                                                                  
E30  23385208.330   122890079.694       -1278.696          44.000                                                                  
> 2025 11 08 14 13 16.9970000  0 33                     
S37  35536098.011   186743434.389        -210.836          42.000  
J07  35536102.364   186743484.716        -211.281          39.000    35536097.042   145514420.444        -165.303          39.000  
S29  35932250.016   188825216.722        -215.888          45.000  
G01  21693427.102   113999728.4293      -3185.125          32.000    21693423.809                1      -2479.139          25.000  
G03  20463713.727   107537548.381        -194.611          43.000    20463710.983    83795484.552        -152.253          33.000  
G14  19067341.602   100199522.445         848.538          43.000    19067335.181    78077547.957         661.125          46.000  
C09  35746008.647   186138847.194       -1478.261          43.000    35746006.622   143934350.046       -1143.090          46.000  
C06  36567563.424   190416896.117       -1799.857          41.000    36567560.190   147242414.630       -1392.068          44.000  
C07  35604950.759   185404325.796          19.133          40.000    35604941.658   143366340.712          14.911          45.000  
C25  20721700.787   107903336.325        -625.918          47.000                                                                  
C24  22944010.558   119475513.488       -3169.892          44.000                                                                  
C34  21686357.101   112926552.201       -1415.057          47.000                                                                  
R12  21213701.960   113319790.016        3508.154          43.000    21213696.866    88137590.189        2728.240          43.000  
R11  18199676.985    97253556.354        -120.829          49.000    18199669.555    75641622.730         -93.360          45.000  
R21  20256024.155   108394080.123       -2536.695          47.000    20256015.918    84306469.074       -1971.730          42.000  
R22  19780882.287   105591688.0532        222.445          45.000    19780888.886    82126875.747         174.184          39.000  
R10  20291756.169   108166479.935       -3739.651          42.000                                                                  
G17  21047905.678   110607455.574         342.676          43.000    21047898.698    86187634.185         266.840          40.000  
G22  20377701.605   107085512.419        1713.094          45.000                                                                  
G30  21473446.653   112843693.423       -2690.215          45.000    21473449.212    87930159.932       -2096.069          39.000  
J02  36901943.118   193921031.653         933.149          41.000    36901939.987   151107278.589         728.262          43.000  
J03  37979586.687   199584076.475        -987.128          43.000    37979582.309   155520547.729        -768.457          44.000  
E13  23308130.534   122485041.224        1015.939          46.000    23308133.112    93852190.775         778.025          48.000  
C40  36075875.208   187856547.631         -75.766          45.000                                                                  
C10  36441072.776   189758227.708          31.782          41.000    36441067.658   146733072.363          24.704          43.000  
G06  21121689.041   110995223.081        1677.988          44.000    21121693.873    86490042.066        1307.973          41.000  
G07  22539054.224   118443532.9392      -3293.552          45.000    22539059.464    92293889.829       -2565.917          36.000  
E15  22775032.648   119683603.896       -1507.588          44.000    22775032.972    91705615.695       -1154.483          46.000  
S28  36331953.013   190925704.694        -221.351          46.000  
E18  19266114.630   101244123.727        3101.324          46.000    19266112.415    77576651.055        2376.443          47.000  
E27  22957973.768   120644952.799        1023.903          44.000                                                                  
G19  21612081.245   113572252.131        1247.419          39.000                                                                  
E30  23385451.633   122891357.831       -1280.004          44.000                                                                  
> 2025 11 08 14 13 17.9970000  0 33                     
S37  35536137.942   186743643.677        -209.261          41.000  
J07  35536142.163   186743693.943        -208.883          37.000    35536136.998   145514583.578        -163.156          42.000  
S29  35932290.846   188825431.517        -214.618          44.000  
G01  21694035.648                       -3183.663          30.000    21694030.442                       -2484.893          25.000  
G03  20463750.548   107537742.086        -194.573          43.000    20463747.809    83795635.462        -151.903          35.000  
G14  19067179.819   100198672.585         848.560          44.000    19067173.445    78076885.663         661.621          45.000  
C09  35746292.318   186140324.317       -1476.821          43.000    35746290.314   143935492.213       -1142.480          46.000  
C06  36567908.920   190418695.393       -1799.415          41.000    36567905.800   147243805.878       -1391.323          43.000  
C07  35604946.678   185404304.825          20.914          42.000    35604937.591   143366324.533          15.747          43.000  
C25  20721820.743   107903960.960        -625.172          46.000                                                                  
C24  22944618.948   119478681.252       -3168.262          43.000                                                                  
C34  21686628.842   112927966.361       -1415.064          48.000                                                                  
R12  21213045.322   113316282.466        3508.342          42.000    21213040.152    88134861.914        2728.649          41.000  
R11  18199699.172    97253675.339        -120.338          48.000    18199691.759    75641715.330         -93.430          46.000  
R21  20256497.941   108396615.461       -2535.905          49.000    20256489.606    84308441.056       -1972.781          42.000  
R22  19780840.592   105591463.9082        223.957          47.000    19780846.352    82126701.426         175.613          42.000  
R10  20292457.465   108170218.291       -3737.968          42.000                                                                  
G17  21047840.453   110607112.765         342.452          43.000    21047833.449    86187367.085         266.726          40.000  
G22  20377375.342   107083798.391        1713.773          45.000                                                                  
G30  21473958.339   112846382.436       -2688.808          43.000    21473960.992    87932255.279       -2095.749          37.000  
J02  36901765.058   193920096.202         935.136          42.000    36901761.905   151106549.627         728.668          43.000  
J03  37979774.016   199585061.553        -986.462          42.000    37979769.753   155521315.279        -768.079          45.000  
E13  23307936.929   122484024.029        1017.128          45.000    23307939.651    93851411.395         779.158          48.000  
C40  36075889.651   187856622.615         -75.617          46.000                                                                  
C10  36441066.255   189758194.734          32.267          41.000    36441061.314   146733046.860          25.125          43.000  
G06  21121369.443   110993543.988        1679.322          46.000    21121373.840    86488733.693        1308.306          42.000  
G07  22539680.576   118446827.2452      -3294.374          42.000    22539686.874    92296456.895       -2565.581          34.000  
E15  22775318.902   119685109.689       -1507.028          43.000    22775319.493    91706769.481       -1154.130          46.000  
S28  36331994.801   190925924.769        -219.796          44.000  
E18  19265523.874   101241021.023        3101.698          45.000    19265522.147    77574273.687        2376.502          46.000  
E27  22957778.683   120643926.956        1025.208          44.000                                                                  
G19  21611843.704   113571003.767        1248.083          39.000                                                                  
E30  23385694.506   122892636.404       -1279.553          44.000                                                                  
> 2025 11 08 14 13 18.9970000  0 33                     
S37  35536177.888   186743853.292        -208.961          41.000  
J07  35536181.932   186743903.585        -209.078          38.000    35536176.953   145514746.868        -162.350          42.000  
S29  35932331.733   188825646.529        -213.352          45.000  
G01  21694643.995                       -3185.514          28.000    21694638.184                       -2478.335          24.000  
G03  20463787.653   107537936.627        -194.839          43.000    20463784.778    83795787.031        -149.885          34.000  
G14  19067018.130   100197823.269         850.074          43.000    19067011.816    78076223.865         662.379          45.000  
C09  35746576.063   186141801.836       -1476.054          43.000    35746574.018   143936634.712       -1141.030          42.000  
C06  36568254.423   190420495.104       -1798.897          43.000    36568251.417   147245197.553       -1390.881          43.000  
C07  35604942.685   185404283.849          21.930          42.000    35604933.622   143366308.293          18.046          44.000  
C25  20721940.811   107904586.318        -624.166          48.000                                                                  
C24  22945227.524   119481849.625       -3167.884          43.000                                                                  
C34  21686900.495   112929380.459       -1413.391          47.000                                                                  
R12  21212388.659   113312775.043        3507.862          44.000    21212383.490    88132133.877        2729.250          44.000  
R11  18199721.556    97253795.395        -119.139          50.000    18199714.204    75641808.716         -93.003          46.000  
R21  20256971.808   108399150.794       -2534.538          49.000    20256963.364    84310412.972       -1971.173          41.000  
R22  19780798.872   105591240.344         224.823          49.000    19780803.947    82126527.593         174.630          42.000  
R10  20293158.976   108173957.601       -3738.214          44.000                                                                  
G17  21047775.188   110606769.898         343.977          41.000    21047768.209    86187099.908         267.884          41.000  
G22  20377049.215   107082084.661        1714.495          44.000                                                                  
G30  21474470.269   112849072.010       -2688.354          43.000    21474472.743    87934351.057       -2094.505          37.000  
J02  36901587.105   193919160.923         935.613          43.000    36901583.858   151105820.874         729.465          42.000  
J03  37979961.444   199586046.675        -984.088          42.000    37979957.115   155522082.928        -767.059          44.000  
E13  23307743.466   122483007.443        1017.998          45.000    23307745.845    93850632.429         779.937          46.000  
C40  36075904.214   187856697.398         -74.172          45.000                                                                  
C10  36441059.828   189758161.665          33.594          40.000    36441054.933   146733021.303          26.588          43.000  
G06  21121050.079   110991865.619        1679.673          46.000    21121053.812    86487425.867        1308.746          44.000  
G07  22540307.909   118450121.889       -3294.649          42.000    22540313.866    92299024.208       -2567.967          33.000  
E15  22775605.807   119686615.771       -1504.892          44.000    22775606.126    91707923.539       -1153.243          44.000  
S28  36332036.726   190926145.085        -218.469          45.000  
E18  19264933.163   101237918.517        3103.613          45.000    19264931.547    77571896.411        2378.503          45.000  
E27  22957583.513   120642901.444        1026.577          44.000                                                                  
G19  21611606.200   113569755.371        1250.767          38.000                                                                  
E30  23385937.964   122893915.523       -1278.222          44.000                                                                  
> 2025 11 08 14 13 19.9970000  0 33                     
S37  35536217.779   186744062.987        -208.279          42.000  
J07  35536221.875   186744113.285        -208.481          38.000    35536216.807   145514910.320        -162.264          42.000  
S29  35932372.618   188825861.461        -213.938          44.000  
G01  21695250.136   114009308.0883      -3183.391          28.000    21695246.583                       -2479.643          26.000  
G03  20463824.744   107538131.660        -194.198          44.000    20463821.799    83795939.077        -151.621          35.000  
G14  19066856.478   100196973.941         850.451          42.000    19066850.275    78075562.062         662.353          45.000  
C09  35746859.813   186143279.443       -1477.058          42.000    35746857.799   143937777.293       -1141.720          45.000  
C06  36568600.026   190422295.034       -1799.288          43.000    36568597.070   147246589.426       -1391.297          43.000  
C07  35604938.512   185404262.067          22.942          41.000    35604929.502   143366291.504          17.256          45.000  
C25  20722060.909   107905211.915        -625.383          46.000                                                                  
C24  22945836.189   119485018.523       -3168.896          43.000                                                                  
C34  21687172.028   112930793.861       -1412.519          47.000                                                                  
R12  21211731.966   113309266.869        3508.293          44.000    21211726.796    88129405.403        2728.658          44.000  
R11  18199744.102    97253916.010        -119.943          50.000    18199736.954    75641902.550         -93.870          46.000  
R21  20257445.467   108401685.307       -2533.576          47.000    20257436.977    84312384.302       -1970.811          42.000  
R22  19780757.301   105591016.591         223.577          50.000    19780761.261    82126353.559         174.657          43.000  
R10  20293860.656   108177697.811       -3739.380          42.000                                                                  
G17  21047709.755   110606426.126         344.328          44.000    21047702.711    86186832.028         267.500          39.000  
G22  20376723.029   107080370.534        1714.781          45.000                                                                  
G30  21474982.180   112851762.041       -2690.107          44.000    21474984.679    87936447.141       -2095.858          39.000  
J02  36901409.153   193918225.482         936.880          42.000    36901405.734   151105091.954         729.816          42.000  
J03  37980148.772   199587031.392        -983.661          41.000    37980144.367   155522850.259        -766.772          44.000  
E13  23307550.068   122481991.026        1017.097          45.000    23307552.547    93849853.641         779.165          47.000  
C40  36075918.541   187856771.375         -73.613          44.000                                                                  
C10  36441053.331   189758127.697          34.855          42.000    36441048.388   146732995.101          26.520          43.000  
G06  21120730.702   110990187.493        1678.510          46.000    21120733.917    86486118.260        1307.931          45.000  
G07  22540934.596   118453417.095       -3295.227          43.000    22540940.936    92301591.660       -2565.812          29.000  
E15  22775892.000   119688121.620       -1504.785          43.000    22775892.547    91709077.352       -1153.282          46.000  
S28  36332078.567   190926365.269        -219.817          44.000  
E18  19264342.715   101234815.554        3103.678          45.000    19264341.224    77569518.835        2378.251          46.000  
E27  22957387.989   120641875.545        1026.573          43.000                                                                  
G19  21611368.474   113568506.207        1249.523          40.000                                                                  
E30  23386181.577   122895195.029       -1278.131          42.000                                                                  
> 2025 11 08 14 13 20.9970000  0 33                     
S37  35536257.883   186744273.147        -210.414          42.000  
J07  35536261.928   186744323.420        -210.490          38.000    35536256.946   145515074.067        -163.672          40.000  
S29  35932413.688   188826077.004        -215.995          44.000  
G03  20463861.949   107538327.708        -196.537          44.000    20463859.037    83796091.864        -152.952          38.000  
G14  19066695.038   100196125.804         847.869          42.000    19066688.975    78074901.218         660.607          46.000  
C09  35747143.689   186144757.734       -1478.705          42.000    35747141.724   143938920.475       -1143.229          43.000  
C06  36568945.784   190424095.532       -1800.865          41.000    36568942.810   147247981.613       -1392.501          40.000  
C07  35604934.383   185404240.911          21.217          39.000    35604925.517   143366275.162          16.177          44.000  
C25  20722181.278   107905838.635        -627.216          46.000                                                                  
C24  22946444.967   119488187.989       -3170.569          43.000                                                                  
C34  21687443.492   112932207.930       -1414.243          47.000                                                                  
R12  21211075.542   113305760.068        3505.930          44.000    21211070.230    88126677.822        2726.219          45.000  
R11  18199767.008    97254038.169        -122.845          49.000    18199759.750    75641997.527         -95.356          46.000  
R21  20257919.142   108404220.581       -2535.421          48.000    20257910.717    84314356.229       -1972.120          42.000  
R22  19780716.094   105590794.090         221.903          49.000    19780718.855    82126180.546         172.057          44.000  
R10  20294562.536   108181438.918       -3742.178          43.000                                                                  
G17  21047644.379   110606083.180         341.354          43.000    21047637.455    86186564.745         266.400          41.000  
G22  20376397.030   107078657.414        1712.723          44.000                                                                  
G30  21475494.262   112854452.746       -2691.306          46.000    21475496.745    87938543.826       -2096.900          38.000  
J02  36901231.303   193917290.452         935.277          42.000    36901227.732   151104363.366         728.898          42.000  
J03  37980336.198   199588016.537        -984.381          41.000    37980331.774   155523617.944        -768.060          44.000  
E13  23307356.665   122480975.633        1014.890          46.000    23307359.146    93849075.611         777.851          45.000  
C40  36075932.785   187856845.930         -74.869          44.000                                                                  
C10  36441046.900   189758094.563          32.320          39.000    36441041.978   146732969.395          24.485          44.000  
G06  21120411.606   110988510.477        1676.770          46.000    21120414.321    86484811.529        1306.298          43.000  
G07  22541561.755   118456712.633       -3295.988          39.000    22541568.252    92304159.812       -2568.562          33.000  
E15  22776178.576   119689628.350       -1506.842          42.000    22776179.438    91710231.909       -1155.290          47.000  
S28  36332120.621   190926586.062        -220.981          47.000  
E18  19263752.337   101231713.466        3101.307          46.000    19263750.958    77567141.931        2376.802          47.000  
E27  22957192.883   120640850.522        1024.596          43.000                                                                  
G19  21611130.971   113567257.826        1248.160          40.000                                                                  
E30  23386425.119   122896475.289       -1280.191          43.000                                                                  
G01                                                                  21695855.642                       -2485.908          25.000  
> 2025 11 08 14 13 21.9970000  0 33                     
S37  35536297.868   186744483.624        -209.659          41.000  
J07  35536301.948   186744533.861        -209.022          36.000    35536297.024   145515238.149        -162.399          41.000  
S29  35932454.820   188826292.897        -215.544          45.000  
G03  20463899.391   107538524.678        -196.852          44.000    20463896.441    83796245.336        -154.008          40.000  
G14  19066533.759   100195278.421         847.477          43.000    19066527.662    78074240.905         659.668          46.000  
C09  35747427.655   186146236.620       -1478.254          43.000    35747425.765   143940063.955       -1143.000          43.000  
C06  36569291.651   190425896.549       -1800.636          41.000    36569288.728   147249374.314       -1392.077          43.000  
C07  35604930.321   185404219.862          21.134          41.000    35604921.527   143366258.879          15.884          45.000  
C25  20722301.942   107906466.249        -627.563          47.000                                                                  
C24  22947053.702   119491358.023       -3166.882          39.000                                                                  
C34  21687714.987   112933622.082       -1414.257          47.000                                                                  
R12  21210419.081   113302253.489        3505.756          42.000    21210413.737    88123950.519        2726.578          46.000  
R11  18199790.066    97254161.447        -123.544          49.000    18199782.857    75642093.416         -95.897          46.000  
R21  20258392.890   108406755.934       -2535.808          48.000    20258384.351    84316328.158       -1972.587          44.000  
R22  19780674.534   105590572.070         222.402          47.000    19780676.837    82126007.931         171.388          40.000  
R10  20295264.492   108185180.785       -3740.294          43.000                                                                  
G17  21047579.087   110605740.154         342.810          42.000    21047572.134    86186297.509         267.146          41.000  
G22  20376071.135   107076944.729        1712.816          45.000                                                                  
G30  21476006.420   112857144.109       -2690.231          44.000    21476008.993    87940641.027       -2096.651          38.000  
J02  36901053.374   193916355.702         935.240          43.000    36901049.722   151103635.023         728.722          43.000  
J03  37980523.764   199589001.937        -985.553          42.000    37980519.280   155524385.749        -767.664          45.000  
E13  23307163.440   122479960.983        1014.594          46.000    23307166.181    93848298.144         777.511          46.000  
C40  36075947.117   187856920.414         -74.774          45.000                                                                  
C10  36441040.656   189758061.354          32.419          39.000    36441035.596   146732943.733          25.310          45.000  
G06  21120092.671   110986834.248        1676.300          44.000    21120095.006    86483505.387        1306.435          42.000  
G07  22542188.984   118460008.588       -3296.898          36.000    22542195.351    92306728.109       -2567.870          29.000  
E15  22776465.429   119691135.546       -1507.628          42.000    22776466.007    91711386.741       -1155.192          47.000  
S28  36332162.662   190926807.194        -220.342          46.000  
E18  19263162.184   101228611.678        3101.088          45.000    19263160.627    77564765.249        2376.384          48.000  
E27  22956998.032   120639825.941        1024.296          44.000                                                                  
G19  21610893.386   113566009.456        1248.611          41.000                                                                  
E30  23386668.491   122897756.240       -1281.021          43.000                                                                  
G01                                                                  21696463.528                       -2484.505          23.000  
> 2025 11 08 14 13 22.9970000  0 33                     
S37  35536338.099   186744694.580        -210.284          42.000  
J07  35536342.075   186744744.868        -210.339          39.000    35536337.090   145515402.465        -163.730          40.000  
S29  35932495.892   188826508.852        -216.542          46.000  
G03  20463937.069   107538723.145        -198.956          43.000    20463934.192    83796399.969        -155.621          38.000  
G14  19066372.628   100194431.848         845.944          42.000    19066366.628    78073581.296         658.790          47.000  
C09  35747711.679   186147715.626       -1479.340          43.000    35747709.803   143941207.652       -1144.166          44.000  
C06  36569637.578   190427697.714       -1800.753          42.000    36569634.656   147250767.060       -1392.223          43.000  
C07  35604926.184   185404199.160          18.950          41.000    35604917.626   143366242.891          14.816          44.000  
C25  20722422.471   107907094.455        -628.892          47.000                                                                  
C24  22947662.655   119494528.814       -3171.100          42.000                                                                  
C34  21687986.596   112935036.972       -1416.003          46.000                                                                  
R12  21209762.760   113298747.813        3504.727          44.000    21209757.491    88121223.864        2725.553          44.000  
R11  18199813.374    97254285.883        -126.010          48.000    18199806.185    75642190.219         -98.165          46.000  
R21  20258866.740   108409292.085       -2537.397          48.000    20258858.353    84318300.705       -1973.386          42.000  
R22  19780633.326   105590350.644         220.775          49.000    19780634.876    82125835.698         171.070          43.000  
R10  20295966.526   108188923.658       -3742.001          43.000                                                                  
G17  21047513.913   110605397.653         341.205          43.000    21047507.048    86186030.619         265.510          41.000  
G22  20375745.431   107075232.789        1709.586          43.000                                                                  
G30  21476518.594   112859835.718       -2691.529          44.000    21476521.253    87942738.359       -2097.057          37.000  
J02  36900875.702   193915421.585         934.527          42.000    36900871.831   151102907.138         727.594          44.000  
J03  37980711.334   199589987.915        -986.786          41.000    37980706.956   155525154.066        -768.872          44.000  
E13  23306970.467   122478946.676        1013.488          46.000    23306973.282    93847520.947         776.649          47.000  
C40  36075961.585   187856995.486         -75.906          44.000                                                                  
C10  36441034.181   189758028.429          31.167          38.000    36441029.257   146732918.285          24.068          44.000  
G06  21119773.669   110985158.378        1675.359          44.000    21119775.904    86482199.557        1305.268          41.000  
G07  22542816.233   118463304.784       -3298.493          40.000    22542822.385    92309296.524       -2568.290          30.000  
E15  22776752.329   119692643.540       -1509.527          42.000    22776753.231    91712542.216       -1156.155          47.000  
S28  36332204.875   190927028.342        -221.473          46.000  
E18  19262572.520   101225510.721        3099.649          46.000    19262570.666    77562389.151        2375.012          47.000  
E27  22956802.927   120638802.037        1022.443          43.000                                                                  
G19  21610655.911   113564761.384        1246.976          41.000                                                                  
E30  23386912.639   122899038.068       -1282.019          43.000                                                                  
G01                                                                  21697071.545                       -2485.864          24.000  
> 2025 11 08 14 13 23.9970000  0 33                     
S37  35536378.229   186744904.942        -210.383          40.000  
J07  35536382.023   186744955.231        -210.153          37.000    35536377.187   145515566.376        -163.818          42.000  
S29  35932536.986   188826724.300        -215.826          44.000  
G03  20463974.877   107538921.472        -199.369          42.000    20463971.899    83796554.485        -155.532          38.000  
G14  19066211.542   100193585.212         844.878          42.000    19066205.579    78072921.534         658.478          47.000  
C09  35747995.617   186149194.303       -1479.061          41.000    35747993.721   143942351.056       -1143.516          45.000  
C06  36569983.407   190429498.479       -1800.756          40.000    36569980.490   147252159.500       -1392.148          39.000  
C07  35604921.937   185404177.614          20.073          38.000    35604913.544   143366226.221          15.449          43.000  
C25  20722543.036   107907722.697        -629.747          45.000                                                                  
C24  22948271.615   119497699.244       -3171.185          41.000                                                                  
C34  21688258.144   112936451.009       -1415.266          45.000                                                                  
R12  21209106.449   113295241.548        3504.835          43.000    21209101.048    88118496.752        2725.987          44.000  
R11  18199836.616    97254410.570        -126.700          47.000    18199829.527    75642287.204         -98.197          46.000  
R21  20259340.528   108411827.288       -2536.213          48.000    20259332.177    84320272.540       -1972.887          42.000  
R22  19780591.895   105590129.036         220.497          49.000    19780593.039    82125663.307         170.885          41.000  
R10  20296668.654   108192666.490       -3742.302          41.000                                                                  
G17  21047448.567   110605054.303         342.165          41.000    21047441.660    86185763.104         266.077          42.000  
G22  20375419.576   107073520.391        1709.909          41.000                                                                  
G30  21477030.680   112862527.067       -2690.991          43.000    21477033.352    87944835.504       -2096.594          37.000  
J02  36900697.794   193914486.759         934.022          41.000    36900693.861   151102178.696         728.024          44.000  
J03  37980898.766   199590973.064        -986.115          41.000    37980894.304   155525921.714        -768.427          44.000  
E13  23306777.517   122477932.225        1013.860          46.000    23306780.135    93846743.650         776.588          46.000  
C40  36075975.846   187857069.597         -75.488          41.000                                                                  
C10  36441027.549   189757994.668          32.291          36.000    36441022.811   146732892.226          24.738          43.000  
G06  21119454.743   110983482.525        1675.052          44.000    21119456.749    86480893.664        1305.736          39.000  
G07  22543443.401   118466600.473       -3294.746          34.000    22543449.702                       -2568.989          23.000  
E15  22777039.407   119694151.009       -1509.193          42.000    22777040.208    91713697.285       -1155.957          47.000  
S28  36332246.821   190927249.097        -221.173          44.000  
E18  19261982.083   101222409.120        3099.908          45.000    19261980.417    77560012.602        2375.412          48.000  
E27  22956607.777   120637777.639        1022.780          42.000                                                                  
G19  21610418.301   113563512.587        1248.006          38.000                                                                  
E30  23387156.839   122900319.531       -1281.794          44.000                                                                  
G01                                                                  21697681.227                       -2484.965          22.000  
> 2025 11 08 14 13 24.9970000  0 33                     
S37  35536417.965   186745113.653        -209.694          40.000  
J07  35536421.762   186745163.924        -209.188          37.000    35536416.926   145515728.979        -162.676          42.000  
S29  35932577.690   188826938.255        -213.733          43.000  
G03  20464012.449   107539118.779        -197.896          46.000    20464009.442    83796708.213        -154.426          39.000  
G14  19066050.205   100192737.542         847.255          44.000    19066044.268    78072261.004         660.279          46.000  
C09  35748279.377   186150671.601       -1476.790          42.000    35748277.428   143943493.424       -1142.077          45.000  
C06  36570328.928   190431297.789       -1798.766          41.000    36570326.040   147253550.843       -1391.698          43.000  
C07  35604917.526   185404154.546          22.710          40.000    35604909.223   143366208.406          17.347          44.000  
C25  20722663.447   107908349.893        -627.324          46.000                                                                  
C24  22948880.198   119500868.149       -3168.878          44.000                                                                  
C34  21688529.452   112937863.558       -1412.730          47.000                                                                  
R12  21208449.933   113291734.435        3507.406          45.000    21208444.428    88115768.943        2727.848          44.000  
R11  18199859.861    97254534.593        -124.367          47.000    18199852.758    75642383.664         -97.213          46.000  
R21  20259814.000   108414361.163       -2533.857          48.000    20259805.596    84322243.354       -1971.062          43.000  
R22  19780550.194   105589906.439         222.553          48.000    19780550.934    82125490.121         172.540          40.000  
R10  20297370.659   108196408.130       -3742.398          41.000                                                                  
G17  21047382.955   110604709.615         344.135          43.000    21047376.019    86185494.448         268.266          42.000  
G22  20375093.448   107071806.679        1713.703          41.000                                                                  
G30  21477542.563   112865217.187       -2689.540          45.000    21477545.179    87946931.700       -2096.166          36.000  
J02  36900519.651   193913550.237         935.612          44.000    36900515.621   151101449.019         729.076          44.000  
J03  37981085.913   199591956.567        -983.838          42.000    37981081.302   155526688.099        -766.974          43.000  
E13  23306584.001   122476916.672        1015.352          45.000    23306587.111    93845965.492         778.102          47.000  
C40  36075989.727   187857142.148         -72.968          44.000                                                                  
C10  36441020.886   189757959.482          33.649          37.000    36441016.071   146732864.949          27.269          44.000  
G06  21119135.589   110981805.691        1676.800          44.000    21119137.474    86479587.006        1306.337          41.000  
E15  22777325.809   119695657.247       -1506.604          44.000    22777326.512    91714851.438       -1154.327          45.000  
S28  36332288.634   190927468.382        -219.202          45.000  
E18  19261391.545   101219306.218        3102.921          46.000    19261390.049    77557635.103        2377.393          48.000  
E27  22956412.686   120636751.930        1025.832          44.000                                                                  
G19  21610180.425   113562262.418        1250.183          40.000                                                                  
E30  23387400.223   122901599.732       -1280.586          44.000                                                                  
G01                                                                  21698289.760                       -2480.195          24.000  
G07                                                                  22544077.232    92314227.3711      -2565.371          25.000  
> 2025 11 08 14 13 25.9970000  0 33                     
S37  35536457.590   186745321.782        -206.602          41.000  
J07  35536461.349   186745372.102        -207.252          38.000    35536456.647   145515891.210        -161.316          43.000  
S29  35932618.346   188827151.542        -212.148          47.000  
G03  20464050.025   107539316.421        -196.694          46.000    20464047.040    83796862.266        -154.279          39.000  
G14  19065888.931   100191890.003         847.793          45.000    19065882.861    78071600.546         660.990          45.000  
C09  35748562.970   186152148.364       -1476.255          43.000    35748560.991   143944635.291       -1140.616          44.000  
C06  36570674.270   190433096.354       -1797.185          43.000    36570671.461   147254941.665       -1389.921          42.000  
C07  35604913.149   185404131.091          23.903          43.000    35604904.654   143366190.167          18.979          44.000  
C25  20722783.926   107908977.136        -626.987          48.000                                                                  
C24  22949488.705   119504036.633       -3166.480          43.000                                                                  
C34  21688800.804   112939275.885       -1412.094          47.000                                                                  
R12  21207793.379   113288227.118        3507.496          45.000    21207787.834    88113041.073        2728.329          42.000  
R11  18199883.178    97254659.096        -124.038          51.000    18199876.020    75642480.455         -96.547          45.000  
R21  20260287.436   108416894.801       -2533.517          51.000    20260278.997    84324213.944       -1970.634          41.000  
R22  19780508.489   105589683.616         223.645          48.000    19780508.796    82125316.831         173.793          45.000  
R10  20298072.652   108200149.605       -3740.997          44.000                                                                  
G17  21047317.282   110604364.405         346.029          45.000    21047310.336    86185225.507         269.270          41.000  
G22  20374767.304   107070093.003        1714.120          44.000                                                                  
G30  21478054.432   112867906.631       -2688.335          46.000    21478056.922    87949027.368       -2094.618          38.000  
J02  36900341.365   193912613.455         936.996          46.000    36900337.250   151100719.009         730.764          40.000  
J03  37981272.998   199592939.765        -982.129          44.000    37981268.224   155527454.166        -765.277          41.000  
E13  23306391.062   122475900.764        1017.127          47.000    23306393.551    93845187.060         779.519          47.000  
C40  36076003.568   187857214.255         -71.642          45.000                                                                  
C10  36441013.962   189757923.659          36.913          41.000    36441009.137   146732837.293          28.247          44.000  
G06  21118816.507   110980128.496        1678.194          48.000    21118818.208    86478280.145        1307.856          41.000  
G07  22544701.361   118473204.4263      -3293.466          35.000    22544706.192                       -2558.088          26.000  
E15  22777612.801   119697163.443       -1504.992          44.000    22777612.930    91716005.500       -1153.072          44.000  
S28  36332330.175   190927686.963        -217.059          47.000  
E18  19260800.701   101216203.263        3103.582          46.000    19260799.442    77555257.515        2378.487          46.000  
E27  22956218.012   120635726.165        1026.912          45.000                                                                  
G19  21609942.471   113561011.763        1250.793          43.000                                                                  
E30  23387643.858   122902879.735       -1278.821          45.000                                                                  
G01                                                                  21698900.635                       -2501.453          24.000  
> 2025 11 08 14 13 26.9970000  0 33                     
S37  35536497.350   186745530.445        -207.354          42.000  
J07  35536501.104   186745580.713        -206.619          37.000    35536496.453   145516053.734        -161.053          42.000  
S29  35932658.930   188827365.157        -212.030          45.000  
G03  20464087.777   107539514.902        -196.616          43.000    20464084.744    83797016.883        -153.098          37.000  
G14  19065727.699   100191042.985         848.356          44.000    19065721.570    78070940.531         661.624          45.000  
C09  35748846.698   186153625.582       -1476.210          44.000    35748844.699   143945777.623       -1141.069          45.000  
C06  36571019.753   190434895.523       -1797.865          42.000    36571016.972   147256332.857       -1389.862          42.000  
C07  35604908.657   185404107.428          25.691          42.000    35604900.145   143366171.865          20.853          43.000  
C25  20722904.512   107909605.052        -626.417          47.000                                                                  
C24  22950097.415   119507205.892       -3168.335          44.000                                                                  
C34  21689072.012   112940688.034       -1410.034          46.000                                                                  
R12  21207136.741   113284719.859        3509.367          45.000    21207131.282    88110313.199        2728.704          42.000  
R11  18199906.736    97254784.594        -123.720          49.000    18199899.503    75642578.057         -95.896          46.000  
R21  20260760.943   108419428.152       -2531.399          50.000    20260752.272    84326184.317       -1969.412          42.000  
R22  19780466.868   105589461.182         222.861          46.000    19780466.695    82125143.853         174.360          42.000  
R10  20298774.680   108203892.090       -3741.211          43.000                                                                  
G17  21047251.577   110604019.024         347.798          42.000    21047244.474    86184956.308         271.271          41.000  
G22  20374441.274   107068379.497        1715.631          43.000                                                                  
G30  21478566.337   112870596.771       -2689.178          44.000    21478568.787    87951123.622       -2096.069          38.000  
J02  36900163.057   193911676.767         938.451          43.000    36900158.935   151099989.157         731.513          43.000  
J03  37981460.136   199593923.022        -981.549          43.000    37981455.226   155528220.310        -764.996          41.000  
E13  23306197.878   122474885.583        1016.872          46.000    23306200.187    93844409.225         779.035          47.000  
C40  36076017.496   187857286.108         -69.105          44.000                                                                  
C10  36441007.081   189757887.686          39.219          39.000    36441002.210   146732809.496          29.832          44.000  
G06  21118497.526   110978452.063        1677.711          46.000    21118499.085    86476973.835        1307.400          41.000  
G07  22545327.965                       -3291.659          29.000    22545340.694                       -2569.008          26.000  
E15  22777899.360   119698669.898       -1504.116          44.000    22777899.582    91717159.762       -1151.832          45.000  
S28  36332371.682   190927905.875        -217.210          44.000  
E18  19260210.156   101213100.401        3105.368          45.000    19260209.020    77552879.979        2379.824          46.000  
E27  22956022.721   120634700.566        1028.086          45.000                                                                  
G19  21609704.328   113559760.736        1253.008          40.000                                                                  
E30  23387887.157   122904160.462       -1278.740          43.000                                                                  
G01                                                                  21699508.082                       -2490.047          23.000  
> 2025 11 08 14 13 27.9970000  0 35                     
S37  35536537.025   186745739.210        -207.826          42.000  
J07  35536540.822   186745789.486        -207.477          38.000    35536536.246   145516216.417        -162.103          41.000  
S29  35932699.506   188827578.775        -213.703          46.000  
G03  20464125.704   107539714.243        -198.756          45.000    20464122.608    83797172.203        -154.514          37.000  
G14  19065566.569   100190196.522         846.192          44.000    19065560.543    78070280.964         660.349          45.000  
C09  35749130.409   186155102.905       -1477.313          42.000    35749128.370   143946919.947       -1142.224          44.000  
C06  36571365.325   190436694.852       -1800.015          41.000    36571362.590   147257724.203       -1391.170          43.000  
C07  35604904.066   185404083.638          24.659          42.000    35604895.656   143366153.450          19.673          43.000  
C25  20723025.204   107910233.495        -628.050          46.000                                                                  
C24  22950706.393   119510375.485       -3169.720          47.000                                                                  
C34  21689343.180   112942100.142       -1410.935          48.000                                                                  
R12  21206480.224   113281212.683        3507.715          47.000    21206474.737    88107585.391        2728.278          42.000  
R11  18199930.396    97254911.013        -125.959          48.000    18199923.107    75642676.393         -98.048          47.000  
R21  20261234.478   108421961.480       -2532.263          50.000    20261225.829    84328154.698       -1970.196          43.000  
R22  19780425.301   105589238.924         222.217          47.000    19780424.817    82124970.957         173.675          44.000  
R10  20299477.070   108207635.303       -3743.994          43.000                                                                  
G17  21047185.799   110603673.456         346.906          45.000    21047178.694    86184687.065         269.669          41.000  
G22  20374115.284   107066666.220        1714.164          44.000                                                                  
G30  21479078.373   112873287.180       -2691.017          43.000    21479080.646    87953219.986       -2096.852          38.000  
J02  36899984.819   193910740.280         937.294          43.000    36899980.618   151099259.422         730.404          44.000  
J03  37981647.339   199594906.292        -982.263          44.000    37981642.196   155528986.520        -765.131          41.000  
E13  23306004.665   122473870.646        1014.890          45.000    23306007.193    93843631.547         777.742          47.000  
C40  36076031.331   187857357.847         -70.503          45.000                                                                  
C10  36441000.243   189757851.580          36.866          41.000    36440995.245   146732781.486          29.033          42.000  
G06  21118178.624   110976775.957        1675.513          46.000    21118179.937    86475667.788        1306.050          40.000  
G07  22545957.470                       -3294.883          34.000    22545973.615                       -2562.774          24.000  
E15  22778186.307   119700176.630       -1505.953          44.000    22778186.164    91718314.289       -1153.562          45.000  
S28  36332413.350   190928124.722        -219.137          44.000  
E18  19259620.169   101209997.723        3103.350          45.000    19259618.553    77550502.586        2378.245          46.000  
E27  22955827.684   120633675.206        1025.854          43.000                                                                  
G19  21609466.241   113558509.548        1252.033          40.000                                                                  
E30  23388131.186   122905441.772       -1280.775          44.000                                                                  
C11                                                                  21345014.781    85947528.5031       -635.267          47.000  
C16                                                                  37036541.980   149130806.2141      -1393.973          41.000  
G01                                                                  21700115.512                       -2484.445          21.000  
> 2025 11 08 14 13 28.9970000  0 35                     
S37  35536576.906   186745948.609        -209.545          43.000  
J07  35536580.672   186745998.915        -209.927          39.000    35536576.144   145516379.616        -164.326          43.000  
S29  35932740.127   188827792.541        -214.350          44.000  
G03  20464163.833   107539914.772        -200.968          43.000    20464160.740    83797328.482        -156.906          37.000  
G14  19065405.610   100189350.469         845.758          44.000    19065399.541    78069621.688         658.967          45.000  
C09  35749414.214   186156580.605       -1478.265          43.000    35749412.271   143948062.629       -1143.406          45.000  
C06  36571710.898   190438494.701       -1800.822          41.000    36571708.233   147259116.027       -1392.699          42.000  
C07  35604899.565   185404059.490          23.611          40.000    35604891.106   143366134.764          18.870          44.000  
C25  20723146.076   107910862.410        -629.086          46.000                                                                  
C24  22951315.447   119513546.244       -3171.887          48.000                                                                  
C34  21689614.293   112943512.104       -1412.059          48.000                                                                  
R12  21205823.650   113277705.198        3506.940          48.000    21205818.066    88104857.292        2727.990          41.000  
R11  18199954.366    97255038.364        -128.465          48.000    18199946.930    75642775.424         -99.175          45.000  
R21  20261707.853   108424494.544       -2532.369          50.000    20261699.283    84330124.802       -1970.271          42.000  
R22  19780383.625   105589016.727         221.290          46.000    19780382.865    82124798.148         172.539          44.000  
R10  20300179.467   108211379.881       -3746.357          44.000                                                                  
G17  21047119.890   110603327.355         346.526          45.000    21047112.807    86184417.343         269.724          41.000  
G22  20373789.286   107064952.873        1712.911          45.000                                                                  
G30  21479590.529   112875978.181       -2691.876          43.000    21479592.625    87955316.850       -2097.596          40.000  
J02  36899806.646   193909804.218         935.711          44.000    36899802.530   151098530.033         729.243          44.000  
J03  37981834.518   199595889.699        -983.447          45.000    37981829.346   155529752.919        -766.461          40.000  
E13  23305811.697   122472856.195        1013.792          45.000    23305814.061    93842854.237         776.713          47.000  
C40  36076044.963   187857429.207         -71.000          46.000                                                                  
C10  36440993.097   189757814.865          38.013          43.000    36440988.196   146732753.133          28.203          43.000  
G06  21117859.748   110975100.306        1674.860          44.000    21117861.045    86474362.126        1304.461          40.000  
G07  22546586.033   118483108.3483      -3295.761          34.000    22546605.302                       -2564.394          25.000  
E15  22778472.886   119701683.559       -1507.619          44.000    22778472.749    91719468.967       -1155.026          44.000  
S28  36332454.952   190928343.571        -219.153          45.000  
E18  19259029.700   101206894.961        3102.758          45.000    19259028.009    77548125.150        2377.154          45.000  
E27  22955632.400   120632649.884        1024.472          42.000    22955631.958    92432816.759         785.123          45.000  
G19  21609228.018   113557257.797        1250.790          41.000                                                                  
E30  23388375.039   122906724.096       -1283.349          44.000    23388376.288    94175298.894        -983.079          45.000  
C11                                                                  21345172.651    85948163.976        -635.058          47.000  
C16                                                                  37036888.283   149132200.351       -1394.602          43.000  
G01                                                                  21700724.149                       -2484.785          20.000  
> 2025 11 08 14 13 29.9970000  0 35                     
S37  35536616.977   186746159.082        -210.995          43.000  
J07  35536620.779   186746209.380        -211.006          39.000    35536616.173   145516543.589        -164.166          44.000  
S29  35932780.896   188828006.422        -213.168          44.000  
G03  20464202.250   107540117.042        -202.377          44.000    20464199.344    83797486.120        -157.877          41.000  
G14  19065244.641   100188504.963         845.316          42.000    19065238.668    78068962.880         658.978          45.000  
C09  35749697.923   186158058.620       -1477.011          41.000    35749696.146   143949205.522       -1142.792          45.000  
C06  36572056.635   190440295.201       -1799.943          41.000    36572053.994   147260508.260       -1392.086          44.000  
C07  35604894.866   185404034.955          25.491          41.000    35604886.388   143366115.861          19.437          45.000  
C25  20723266.985   107911491.846        -628.836          45.000                                                                  
C24  22951924.585   119516718.517       -3172.821          46.000                                                                  
C34  21689885.398   112944924.057       -1411.600          46.000                                                                  
R12  21205166.827   113274197.074        3509.033          47.000    21205161.454    88102128.706        2730.247          40.000  
R11  18199978.491    97255166.722        -127.916          47.000    18199971.030    75642875.255         -99.644          45.000  
R21  20262181.180   108427027.375       -2532.102          48.000    20262172.687    84332094.786       -1970.172          43.000  
R22  19780341.954   105588794.248         223.247          49.000    19780340.772    82124625.069         174.159          43.000  
R10  20300882.332   108215126.270       -3747.447          44.000                                                                  
G17  21047053.851   110602980.563         348.868          45.000    21047046.779    86184147.119         270.981          41.000  
G22  20373463.178   107063239.424        1714.605          42.000                                                                  
G30  21480102.800   112878669.841       -2690.702          41.000    21480104.902    87957414.278       -2097.092          40.000  
J02  36899628.781   193908869.110         934.690          45.000    36899624.623   151097801.366         728.546          42.000  
J03  37982021.804   199596873.713        -983.679          40.000    37982016.473   155530519.583        -766.864          43.000  
E13  23305618.761   122471842.113        1014.689          44.000    23305621.229    93842077.173         777.651          47.000  
C40  36076058.473   187857500.355         -71.046          44.000                                                                  
C10  36440986.076   189757777.581          39.128          40.000    36440981.042   146732724.250          30.051          44.000  
G06  21117540.932   110973424.910        1675.894          43.000    21117542.125    86473056.585        1306.548          40.000  
G07  22547217.709                       -3296.400          29.000    22547242.650                       -2570.302          24.000  
E15  22778759.613   119703190.789       -1506.982          42.000    22778759.930    91720623.854       -1154.841          45.000  
S28  36332496.692   190928562.420        -218.347          43.000  
E18  19258439.286   101203792.257        3103.446          45.000    19258437.459    77545747.689        2378.198          45.000  
E27  22955437.018   120631624.549        1025.900          42.000    22955436.344    92432031.132         786.129          44.000  
G19  21608989.637   113556004.924        1255.160          44.000                                                                  
E30  23388619.484   122908007.958       -1284.740          45.000    23388620.237    94176282.682        -984.707          44.000  
C11                                                                  21345330.435    85948799.189        -634.656          44.000  
C16                                                                  37037234.645   149133595.040       -1394.921          43.000  
G01                                                                  21701333.676                       -2492.191          19.000  
> 2025 11 08 14 13 30.9970000  0 35                     
S37  35536657.103   186746370.004        -213.232          41.000  
J07  35536660.974   186746420.278        -212.998          38.000    35536656.399   145516707.941        -166.058          44.000  
S29  35932821.509   188828219.815        -214.375          42.000  
G03  20464240.993   107540320.845        -206.150          44.000    20464238.106    83797644.955        -160.992          40.000  
G14  19065083.758   100187659.619         843.190          43.000    19065077.823    78068304.143         656.766          45.000  
C09  35749981.765   186159536.293       -1479.698          40.000    35749979.916   143950348.096       -1143.282          46.000  
C06  36572402.394   190442095.709       -1802.055          41.000    36572399.801   147261900.471       -1392.627          45.000  
C07  35604890.030   185404009.757          24.492          41.000    35604881.566   143366096.408          17.927          44.000  
C25  20723387.790   107912121.259        -630.755          46.000                                                                  
C24  22952533.911   119519891.596       -3174.292          47.000                                                                  
C34  21690156.544   112946335.777       -1413.405          46.000                                                                  
R12  21204509.863   113270688.023        3506.909          47.000    21204504.479    88099399.450        2727.981          38.000  
R11  18200002.537    97255295.640        -130.931          49.000    18199995.201    75642975.521        -101.757          46.000  
R21  20262654.333   108429559.690       -2534.246          50.000    20262645.864    84334064.312       -1970.589          40.000  
R22  19780300.105   105588570.821         222.073          48.000    19780298.722    82124451.347         173.245          44.000  
R10  20301585.428   108218873.780       -3749.458          44.000                                                                  
G17  21046987.633   110602632.816         346.313          44.000    21046980.592    86183876.085         270.224          38.000  
G22  20373137.071   107061525.440        1712.745          42.000                                                                  
G30  21480614.984   112881361.503       -2692.291          42.000    21480617.070    87959511.671       -2097.396          39.000  
J02  36899451.035   193907934.483         932.730          44.000    36899446.676   151097073.012         726.472          41.000  
J03  37982209.129   199597857.835        -986.737          42.000    37982203.759   155531286.346        -768.549          42.000  
E13  23305425.568   122470827.663        1013.470          43.000    23305428.275    93841299.943         776.135          47.000  
C40  36076072.114   187857570.879         -72.003          44.000                                                                  
C10  36440978.650   189757739.260          36.875          38.000    36440973.672   146732694.609          28.165          41.000  
G06  21117222.033   110971749.083        1675.614          39.000    21117223.156    86471750.767        1304.901          43.000  
E15  22779046.493   119704698.110       -1509.580          44.000    22779046.849    91721778.800       -1156.869          43.000  
S28  36332538.143   190928780.435        -218.733          41.000  
E18  19257848.898   101200689.347        3100.789          46.000    19257847.115    77543370.100        2376.026          46.000  
E27  22955241.986   120630599.051        1023.142          43.000    22955241.752    92431245.314         784.188          45.000  
G19  21608751.040   113554750.760        1253.061          44.000                                                                  
E30  23388863.883   122909292.913       -1287.885          44.000    23388865.424    94177267.226        -986.530          46.000  
C11                                                                  21345488.080    85949433.810        -636.188          45.000  
C16                                                                  37037581.131   149134989.868       -1395.352          42.000  
G01                                                                  21701939.843                       -2480.459          20.000  
G07                                                                  22547877.014                       -2563.372          25.000  
> 2025 11 08 14 13 31.9970000  0 35                     
S37  35536697.258   186746581.111        -210.896          42.000  
J07  35536701.179   186746631.422        -211.254          38.000    35536696.580   145516872.419        -164.579          45.000  
S29  35932862.067   188828432.855        -213.398          42.000  
G03  20464279.873   107540525.658        -205.386          43.000    20464277.011    83797804.589        -160.085          42.000  
G14  19064922.901   100186814.574         844.622          42.000    19064916.920    78067645.620         658.383          45.000  
C09  35750265.528   186161013.692       -1477.236          40.000    35750263.645   143951490.548       -1141.901          45.000  
C06  36572748.091   190443896.034       -1799.814          39.000    36572745.502   147263292.626       -1391.982          43.000  
C07  35604885.095   185403984.211          25.197          41.000    35604876.651   143366076.630          19.139          44.000  
C25  20723508.729   107912750.797        -630.055          46.000                                                                  
C24  22953143.366   119523065.177       -3173.865          46.000                                                                  
C34  21690427.520   112947747.337       -1412.275          47.000                                                                  
R12  21203852.748   113267178.544        3509.052          46.000    21203847.540    88096669.890        2728.856          37.000  
R11  18200026.703    97255425.176        -129.988          49.000    18200019.350    75643076.283        -101.275          46.000  
R21  20263127.576   108432091.748       -2532.395          50.000    20263118.976    84336033.700       -1969.318          40.000  
R22  19780258.349   105588347.113         222.650          47.000    19780256.644    82124277.424         172.424          41.000  
R10  20302288.553   108222622.009       -3748.394          44.000                                                                  
G17  21046921.354   110602284.460         348.212          44.000    21046914.405    86183604.644         271.297          38.000  
G22  20372810.988   107059811.344        1713.854          43.000                                                                  
G30  21481127.180   112884053.057       -2691.258          41.000    21481129.335    87961609.002       -2096.994          37.000  
J02  36899273.183   193907000.052         934.641          44.000    36899268.706   151096344.927         727.368          41.000  
J03  37982396.381   199598841.936        -984.277          40.000    37982391.088   155532053.321        -767.426          41.000  
E13  23305232.720   122469813.248        1014.419          43.000    23305235.271    93840522.621         777.186          48.000  
C40  36076085.584   187857641.073         -70.756          44.000                                                                  
C10  36440971.062   189757700.244          39.479          39.000    36440966.129   146732664.462          30.379          41.000  
G06  21116903.122   110970073.136        1676.188          42.000    21116904.072    86470444.805        1305.903          44.000  
E15  22779333.312   119706205.568       -1508.076          44.000    22779333.797    91722933.842       -1155.566          46.000  
S28  36332579.462   190928997.995        -217.480          40.000  
E18  19257258.463   101197586.271        3102.816          45.000    19257256.932    77540992.466        2377.248          47.000  
E27  22955047.109   120629573.432        1025.244          44.000    22955046.645    92430459.505         785.233          47.000  
G19  21608512.238   113553495.649        1255.146          44.000                                                                  
E30  23389108.859   122910578.542       -1286.078          44.000    23389109.292    94178252.333        -985.917          47.000  
C11                                                                  21345645.727    85950068.187        -634.674          46.000  
C16                                                                  37037927.495   149136384.654       -1396.144          40.000  
G01                                                                  21702546.726                       -2490.323          19.000  
G07                                                                  22548504.159                       -2566.021          25.000  
> 2025 11 08 14 13 32.9970000  0 35                     
S37  35536737.607   186746792.902        -209.790          42.000  
J07  35536741.442   186746843.212        -210.363          38.000    35536736.868   145517037.469        -163.612          45.000  
S29  35932902.844   188828646.471        -212.129          40.000  
G03  20464319.081   107540731.711        -203.964          44.000    20464316.170    83797965.013        -158.971          39.000  
G14  19064762.335   100185970.522         846.124          43.000    19064756.321    78066987.974         658.802          46.000  
C09  35750549.353   186162491.885       -1476.508          39.000    35750547.496   143952633.562       -1141.263          45.000  
C06  36573093.974   190445697.093       -1798.486          40.000    36573091.384   147264685.312       -1390.623          44.000  
C07  35604880.390   185403959.044          26.460          43.000    35604871.804   143366057.141          20.413          43.000  
C25  20723629.758   107913381.404        -628.892          46.000                                                                  
C24  22953752.867   119526239.626       -3172.882          45.000                                                                  
C34  21690698.601   112949159.352       -1410.402          47.000                                                                  
R12  21203195.895   113263669.780        3509.331          45.000    21203190.685    88093940.787        2731.344          36.000  
R11  18200051.161    97255556.197        -129.144          48.000    18200043.910    75643178.179        -100.511          46.000  
R21  20263600.974   108434624.275       -2531.027          49.000    20263592.200    84338003.436       -1969.230          40.000  
R22  19780216.684   105588124.298         225.107          49.000    19780214.715    82124104.061         174.747          41.000  
R10  20302991.981   108226371.526       -3747.658          43.000                                                                  
G17  21046855.062   110601936.518         349.278          45.000    21046848.238    86183333.462         272.443          38.000  
G22  20372484.851   107058097.984        1715.006          44.000                                                                  
G30  21481639.511   112886745.450       -2690.735          42.000    21481641.667    87963707.033       -2097.408          38.000  
J02  36899095.495   193906066.191         935.412          43.000    36899090.890   151095617.212         729.168          42.000  
J03  37982583.889   199599826.628        -982.526          42.000    37982578.472   155532820.553        -765.936          44.000  
E13  23305039.499   122468799.780        1014.797          42.000    23305042.309    93839746.065         777.827          47.000  
C40  36076098.968   187857711.626         -69.260          45.000                                                                  
C10  36440963.760   189757661.657          39.771          40.000    36440958.676   146732634.607          30.935          41.000  
G06  21116584.368   110968398.176        1676.538          43.000    21116585.273    86469139.611        1306.357          43.000  
G07  22549138.906                       -3294.904          29.000    22549132.984                       -2568.297          25.000  
E15  22779620.754   119707713.820       -1507.205          46.000    22779621.016    91724089.514       -1154.837          47.000  
S28  36332620.966   190929216.100        -216.030          43.000  
E18  19256667.969   101194483.896        3104.326          45.000    19256666.653    77538615.358        2377.968          47.000  
E27  22954852.147   120628548.639        1026.167          45.000    22954851.669    92429674.216         786.319          46.000  
G19  21608273.525   113552240.989        1255.943          43.000                                                                  
E30  23389353.497   122911865.133       -1284.886          46.000    23389354.340    94179238.153        -984.046          46.000  
C11                                                                  21345803.429    85950702.983        -633.627          47.000  
C16                                                                  37038274.071   149137779.899       -1394.195          42.000  
G01                                                                  21703153.022                       -2483.656          20.000  
> 2025 11 08 14 13 33.9970000  0 35                     
S37  35536777.921   186747004.707        -208.936          42.000  
J07  35536781.783   186747055.023        -209.352          38.000    35536777.198   145517202.498        -162.767          44.000  
S29  35932943.530   188828860.074        -210.204          42.000  
G03  20464358.401   107540938.271        -204.747          40.000    20464355.407    83798126.172        -160.166          35.000  
G14  19064601.750   100185127.027         846.765          44.000    19064595.826    78066330.683         659.727          46.000  
C09  35750833.187   186163970.179       -1475.234          39.000    35750831.348   143953776.684       -1141.142          44.000  
C06  36573439.923   190447498.313       -1798.842          40.000    36573437.306   147266078.132       -1390.438          43.000  
C07  35604875.412   185403933.687          28.660          41.000    35604866.922   143366037.553          22.252          43.000  
C25  20723750.881   107914012.555        -628.309          46.000                                                                  
C24  22954362.610   119529414.274       -3172.717          46.000                                                                  
C34  21690969.764   112950571.292       -1409.397          46.000                                                                  
R12  21202539.207   113260161.246        3511.406          47.000    21202533.953    88091211.959        2730.155          38.000  
R11  18200075.842    97255688.079        -129.050          49.000    18200068.653    75643280.741        -100.755          46.000  
R21  20264074.348   108437156.709       -2529.722          50.000    20264065.540    84339973.112       -1967.235          41.000  
R22  19780175.051   105587901.828         226.290          49.000    19780172.864    82123931.018         175.731          43.000  
R10  20303695.449   108230121.495       -3747.958          44.000                                                                  
G17  21046788.754   110601588.396         351.167          45.000    21046781.971    86183062.279         274.317          38.000  
G22  20372158.780   107056384.901        1716.411          45.000                                                                  
G30  21482151.901   112889438.068       -2689.890          42.000    21482154.075    87965805.138       -2096.681          39.000  
J02  36898917.788   193905132.286         936.382          43.000    36898913.108   151094889.483         730.173          43.000  
J03  37982771.124   199600811.195        -981.457          43.000    37982765.765   155533587.757        -765.143          43.000  
E13  23304846.877   122467786.644        1016.507          43.000    23304849.535    93838969.779         778.797          47.000  
C40  36076112.524   187857781.945         -67.220          44.000                                                                  
C10  36440956.251   189757622.846          42.331          40.000    36440951.224   146732604.621          32.323          43.000  
G06  21116265.766   110966723.663        1677.250          41.000    21116266.639    86467834.815        1307.005          41.000  
E15  22779908.021   119709222.237       -1505.476          46.000    22779908.368    91725245.291       -1153.483          47.000  
S28  36332662.504   190929434.284        -215.309          42.000  
E18  19256077.879   101191381.687        3105.948          46.000    19256076.579    77536238.337        2379.006          48.000  
E27  22954657.180   120627523.987        1027.772          45.000    22954656.821    92428889.103         787.397          47.000  
G19  21608034.713   113550986.160        1257.946          42.000                                                                  
E30  23389598.729   122913152.110       -1285.051          45.000    23389599.247    94180224.261        -983.863          45.000  
C11                                                                  21345961.144    85951337.815        -632.429          45.000  
C16                                                                  37038620.619   149139175.208       -1393.014          44.000  
G01                                                                  21703759.800                       -2472.420          19.000  
G07                                                                  22549759.954                       -2555.633          25.000  
> 2025 11 08 14 13 34.9970000  0 35                     
S37  35536818.195   186747216.426        -210.386          42.000  
J07  35536822.076   186747266.692        -209.702          38.000    35536817.490   145517367.457        -163.467          45.000  
S29  35932984.200   188829073.231        -212.243          42.000  
G03  20464397.848   107541145.549        -206.033          48.000    20464394.899    83798287.697        -161.299          41.000  
G14  19064441.380   100184283.570         844.795          45.000    19064435.484    78065673.451         657.960          46.000  
C09  35751117.146   186165448.093       -1476.626          40.000    35751115.198   143954919.537       -1142.347          45.000  
C06  36573785.728   190449299.253       -1799.858          40.000    36573783.190   147267470.712       -1392.051          42.000  
C07  35604870.367   185403907.744          27.152          41.000    35604861.972   143366017.443          21.566          43.000  
C25  20723872.173   107914643.700        -630.657          47.000                                                                  
C24  22954972.256   119532589.142       -3174.011          45.000                                                                  
C34  21691240.837   112951982.851       -1410.563          47.000                                                                  
R12  21201882.427   113256652.290        3508.101          46.000    21201877.051    88088482.594        2732.723          35.000  
R11  18200100.665    97255820.386        -131.456          51.000    18200093.413    75643383.661        -102.400          46.000  
R21  20264547.577   108439688.756       -2531.896          51.000    20264538.616    84341942.416       -1968.919          40.000  
R22  19780133.248   105587679.077         223.030          49.000    19780130.956    82123757.703         174.238          44.000  
R10  20304399.007   108233871.933       -3749.811          44.000                                                                  
G17  21046722.342   110601239.601         349.821          44.000    21046715.647    86182790.506         272.008          39.000  
G22  20371832.809   107054671.469        1715.498          44.000                                                                  
G30  21482664.285   112892130.545       -2691.780          41.000    21482666.475    87967903.161       -2097.165          40.000  
J02  36898740.122   193904198.301         935.942          43.000    36898735.399   151094161.718         728.654          41.000  
J03  37982958.384   199601795.492        -982.758          41.000    37982953.061   155534354.733        -765.411          41.000  
E13  23304653.834   122466773.299        1014.570          42.000    23304656.654    93838193.343         777.204          47.000  
C40  36076126.046   187857851.707         -68.169          45.000                                                                  
C10  36440948.681   189757583.334          41.135          39.000    36440943.656   146732573.998          31.901          42.000  
G06  21115947.038   110965048.954        1674.837          37.000    21115947.973    86466529.860        1305.737          40.000  
E15  22780194.869   119710730.538       -1507.142          46.000    22780195.543    91726401.023       -1154.965          47.000  
S28  36332704.042   190929651.904        -216.893          41.000  
E18  19255487.210   101188279.199        3103.887          45.000    19255486.083    77533861.082        2378.085          47.000  
E27  22954462.367   120626499.057        1025.646          45.000    22954461.716    92428103.749         786.167          47.000  
G19  21607795.768   113549730.478        1256.810          43.000                                                                  
E30  23389843.366   122914439.335       -1285.734          45.000    23389844.190    94181210.617        -985.443          46.000  
C11                                                                  21346118.783    85951972.238        -633.781          47.000  
C16                                                                  37038967.118   149140570.375       -1394.558          43.000  
G01                                                                  21704367.347                       -2488.697          19.000  
G07                                                                  22550389.762                       -2571.085          25.000  
> 2025 11 08 14 13 35.9970000  0 35                     
S37  35536858.307   186747427.446        -210.298          42.000  
J07  35536862.306   186747477.746        -210.193          39.000    35536857.674   145517531.935        -163.988          45.000  
S29  35933024.572   188829285.630        -211.962          42.000  
G03  20464437.407   107541353.130        -207.656          42.000    20464434.389    83798449.261        -161.381          42.000  
G14  19064280.781   100183440.083         843.539          45.000    19064275.010    78065016.134         657.761          46.000  
C09  35751400.950   186166925.412       -1476.928          39.000    35751399.027   143956061.894       -1142.438          45.000  
C06  36574131.413   190451099.351       -1798.710          41.000    36574128.894   147268862.710       -1391.573          43.000  
C07  35604865.441   185403881.222          27.085          42.000    35604856.830   143365996.953          21.190          43.000  
C25  20723993.500   107915274.633        -630.500          46.000                                                                  
C24  22955581.798   119535763.461       -3174.146          46.000                                                                  
C34  21691511.732   112953393.961       -1410.594          45.000                                                                  
R12  21201225.451   113253143.065        3509.594          45.000    21201220.159    88085753.328        2729.481          37.000  
R11  18200125.435    97255952.953        -132.709          50.000    18200118.205    75643486.760        -102.916          45.000  
R21  20265020.654   108442220.287       -2531.481          50.000    20265011.571    84343911.392       -1968.797          39.000  
R22  19780091.542   105587455.891         222.741          49.000    19780089.069    82123584.154         173.906          41.000  
R10  20305102.565   108237622.095       -3749.613          44.000                                                                  
G17  21046655.852   110600890.283         349.977          43.000    21046649.081    86182518.223         272.702          39.000  
G22  20371506.677   107052957.826        1713.673          44.000                                                                  
G30  21483176.500   112894822.372       -2691.529          41.000    21483178.689    87970000.662       -2097.788          40.000  
J02  36898562.256   193903263.780         934.434          41.000    36898557.610   151093433.539         728.581          41.000  
J03  37983145.668   199602779.320        -982.745          36.000    37983140.329   155535121.343        -765.912          39.000  
E13  23304460.780   122465759.589        1014.513          43.000    23304463.724    93837416.636         777.088          47.000  
C40  36076139.188   187857920.899         -68.622          44.000                                                                  
C10  36440940.989   189757543.192          40.242          39.000    36440935.992   146732542.932          31.986          42.000  
G06  21115628.264   110963373.922        1675.137          35.000    21115629.205    86465224.659        1305.712          38.000  
E15  22780481.459   119712238.608       -1507.393          44.000    22780482.750    91727556.584       -1155.172          47.000  
S28  36332745.325   190929868.834        -216.479          42.000  
E18  19254896.575   101185176.420        3103.293          44.000    19254895.590    77531483.604        2377.720          47.000  
E27  22954266.880   120625473.828        1025.492          45.000    22954266.559    92427318.194         785.920          47.000  
G19  21607556.678   113548474.151        1257.122          44.000                                                                  
E30  23390088.382   122915726.344       -1286.310          46.000    23390089.040    94182196.769        -985.697          45.000  
C11                                                                  21346276.340    85952606.321        -633.473          48.000  
C16                                                                  37039313.570   149141964.943       -1393.727          45.000  
G01                                                                  21704975.527                       -2479.592          18.000  
G07                                                                  22551017.369                       -2564.115          25.000  
> 2025 11 08 14 13 36.9970000  0 35                     
S37  35536898.533   186747639.137        -210.095          41.000  
J07  35536902.633   186747689.453        -210.715          39.000    35536898.016   145517696.859        -163.351          44.000  
S29  35933065.214   188829498.822        -211.607          42.000  
G03  20464477.111   107541561.590        -206.930          45.000    20464474.051    83798611.817        -161.270          37.000  
G14  19064120.474   100182597.726         843.901          45.000    19064114.711    78064359.777         657.882          46.000  
C09  35751684.897   186168403.699       -1477.434          39.000    35751682.936   143957204.963       -1141.764          46.000  
C06  36574477.383   190452900.478       -1800.134          40.000    36574474.750   147270255.399       -1391.336          43.000  
C07  35604860.548   185403855.228          28.236          42.000    35604851.897   143365976.844          22.155          43.000  
C25  20724114.937   107915906.938        -630.656          46.000                                                                  
C24  22956191.728   119538938.614       -3174.201          45.000                                                                  
C34  21691782.853   112954805.578       -1409.517          46.000                                                                  
R12  21200568.820   113249634.977        3508.929          42.000    21200563.520    88083024.862        2730.202          36.000  
R11  18200150.496    97256087.111        -132.518          49.000    18200143.458    75643591.141        -103.513          46.000  
R21  20265493.612   108444752.380       -2529.551          50.000    20265484.802    84345880.863       -1968.197          40.000  
R22  19780049.956   105587234.064         222.020          49.000    19780047.342    82123411.646         173.134          42.000  
R10  20305806.330   108241373.452       -3749.986          44.000                                                                  
G17  21046589.492   110600541.571         350.276          46.000    21046582.745    86182246.536         272.823          39.000  
G22  20371180.833   107051245.107        1713.990          45.000                                                                  
G30  21483689.017   112897515.289       -2691.959          42.000    21483691.207    87972098.996       -2097.351          39.000  
J02  36898384.506   193902329.720         936.312          44.000    36898379.881   151092705.650         729.545          43.000  
J03  37983333.001   199603763.680        -982.928          33.000    37983327.724   155535888.413        -765.729          36.000  
E13  23304268.526   122464747.121        1013.067          43.000    23304271.131    93836640.831         776.681          48.000  
C40  36076152.510   187857990.542         -68.020          44.000                                                                  
C10  36440933.291   189757503.629          41.054          41.000    36440928.370   146732512.376          31.875          43.000  
G06  21115309.802   110961700.290        1673.636          34.000    21115310.779    86463920.587        1304.469          33.000  
G07  22551627.599                       -3294.709          30.000    22551643.479                       -2569.923          25.000  
E15  22780768.597   119713747.556       -1506.842          44.000    22780769.910    91728712.779       -1155.179          47.000  
S28  36332786.818   190930086.519        -216.747          42.000  
E18  19254306.271   101182074.497        3103.229          43.000    19254305.156    77529106.775        2378.177          47.000  
E27  22954072.250   120624449.482        1026.156          45.000    22954071.696    92426533.326         785.878          46.000  
G19  21607317.804   113547218.636        1256.768          45.000                                                                  
E30  23390333.430   122917014.213       -1285.939          46.000    23390334.019    94183183.598        -985.655          45.000  
C11                                                                  21346433.987    85953240.999        -633.681          46.000  
C16                                                                  37039660.150   149143360.239       -1394.453          44.000  
G01                                                                  21705583.783                       -2492.197          19.000  
> 2025 11 08 14 13 37.9970000  0 36                     
S37  35536938.582   186747849.421        -209.532          42.000  
J07  35536942.560   186747899.704        -209.348          39.000    35536938.028   145517860.725        -162.864          45.000  
S29  35933105.470   188829710.932        -212.104          41.000  
G03  20464516.702   107541769.444        -206.892          44.000    20464513.631    83798773.778        -161.527          39.000  
G14  19063960.154   100181754.839         842.520          43.000    19063954.325    78063702.989         656.746          46.000  
C09  35751968.500   186169880.974       -1476.902          39.000    35751966.624   143958347.289       -1141.950          46.000  
C06  36574823.046   190454700.313       -1799.371          41.000    36574820.349   147271647.160       -1390.938          44.000  
C07  35604855.281   185403828.180          27.739          41.000    35604846.747   143365955.963          21.022          42.000  
C25  20724236.205   107916538.678        -631.200          46.000                                                                  
C24  22956801.270   119542112.508       -3173.004          46.000                                                                  
C34  21692053.763   112956216.159       -1409.862          46.000                                                                  
R12  21199912.029   113246126.252        3509.712          43.000    21199906.736    88080295.757        2731.905          32.000  
R11  18200175.461    97256221.032        -133.847          50.000    18200168.590    75643695.282        -104.104          46.000  
R21  20265966.648   108447283.621       -2530.980          50.000    20265957.896    84347849.625       -1968.917          38.000  
R22  19780008.428   105587011.630         223.855          51.000    19780005.568    82123238.627         172.955          42.000  
R10  20306509.882   108245123.779       -3749.332          44.000                                                                  
G17  21046523.022   110600191.963         350.103          45.000    21046516.114    86181974.115         272.674          38.000  
G22  20370854.732   107049531.750        1712.658          45.000                                                                  
G30  21484201.245   112900207.089       -2691.226          41.000    21484203.535    87974196.512       -2096.713          39.000  
J02  36898206.525   193901394.387         936.335          42.000    36898201.881   151091976.842         728.903          43.000  
J03  37983518.318                1       -983.865          27.000    37983514.901   155536654.735        -768.141          27.000  
E13  23304075.707   122463733.856        1013.185          42.000    23304078.329    93835864.434         776.083          47.000  
C40  36076165.788   187858059.079         -67.691          45.000                                                                  
C10  36440925.670   189757463.079          40.280          40.000    36440920.592   146732481.058          30.911          43.000  
R06  22653177.227                        2213.589          25.000                                                                  
G06  21114989.999   110960021.2383       1673.223          30.000    21114992.241    86462616.008        1303.272          31.000  
E15  22781055.709   119715255.685       -1508.208          46.000    22781056.696    91729868.345       -1155.647          46.000  
S28  36332828.011   190930303.103        -216.509          42.000  
E18  19253716.021   101178971.704        3102.683          44.000    19253715.040    77526729.336        2377.654          47.000  
E27  22953877.287   120623424.365        1025.114          46.000    22953876.789    92425747.831         785.323          46.000  
G19  21607078.667   113545962.235        1256.796          44.000                                                                  
E30  23390578.391   122918301.006       -1285.950          45.000    23390579.020    94184169.555        -985.881          45.000  
C11                                                                  21346591.464    85953874.974        -633.468          47.000  
C16                                                                  37040006.436   149144754.503       -1393.024          42.000  
G01                                                                  21706191.482                       -2477.880          18.000  
G07                                                                  22552268.394                       -2568.924          25.000  
> 2025 11 08 14 13 38.9970000  0 36                     
S37  35536978.544   186748059.421        -211.316          43.000  
J07  35536982.521   186748109.695        -210.922          39.000    35536977.994   145518024.381        -165.167          44.000  
S29  35933145.704   188829922.754        -213.074          42.000  
G03  20464556.372   107541977.727        -210.236          44.000    20464553.198    83798936.093        -163.870          39.000  
G14  19063799.857   100180912.328         840.585          44.000    19063794.025    78063046.455         655.274          46.000  
C09  35752252.143   186171358.135       -1478.572          38.000    35752250.321   143959489.513       -1143.350          45.000  
C06  36575168.669   190456499.970       -1801.286          40.000    36575166.018   147273038.774       -1392.795          41.000  
C07  35604850.003   185403800.966          26.010          42.000    35604841.482   143365934.922          19.557          43.000  
C25  20724357.582   107917170.785        -634.062          46.000                                                                  
C24  22957410.827   119545286.204       -3174.683          46.000                                                                  
C34  21692324.762   112957626.660       -1411.212          46.000                                                                  
R12  21199255.274   113242618.011        3506.664          43.000    21199250.086    88077567.291        2725.555          33.000  
R11  18200200.628    97256355.669        -136.856          50.000    18200193.763    75643799.988        -106.326          46.000  
R21  20266439.653   108449814.822       -2532.238          50.000    20266430.913    84349818.319       -1970.612          40.000  
R22  19779966.946   105586789.577         221.584          50.000    19779963.876    82123065.977         171.414          42.000  
R10  20307213.412   108248874.252       -3751.598          45.000                                                                  
G17  21046456.520   110599842.289         348.454          46.000    21046449.561    86181701.674         271.905          37.000  
G22  20370528.729   107047818.610        1711.457          44.000                                                                  
G30  21484713.541   112902898.814       -2692.995          43.000    21484715.758    87976293.985       -2098.176          40.000  
J02  36898028.513   193900458.885         933.928          41.000    36898023.815   151091247.838         727.797          44.000  
J03  37983706.808   199605725.7063       -984.175          26.000    37983702.272                        -765.722          27.000  
E13  23303882.839   122462720.779        1010.614          42.000    23303885.755    93835088.163         774.679          48.000  
C40  36076178.967   187858127.406         -69.409          45.000                                                                  
C10  36440917.794   189757422.368          39.375          41.000    36440912.742   146732449.602          30.759          41.000  
R06  22652750.893   120879418.3283       2214.304          27.000                                                                  
G06  21114676.066   110958371.5142       1671.317          29.000    21114673.448                        1302.884          30.000  
E15  22781342.849   119716763.915       -1510.158          46.000    22781343.735    91731023.977       -1156.830          48.000  
S28  36332869.257   190930519.549        -218.181          40.000  
E18  19253125.545   101175869.064        3100.980          46.000    19253124.645    77524351.988        2376.138          48.000  
E27  22953682.177   120622399.366        1023.032          45.000    22953681.873    92424962.440         783.991          47.000  
G19  21606839.578   113544705.853        1255.940          44.000                                                                  
E30  23390823.318   122919587.820       -1289.028          46.000    23390823.934    94185155.564        -988.073          46.000  
C11                                                                  21346748.958    85954509.005        -635.101          47.000  
C16                                                                  37040352.700   149146148.666       -1395.554          41.000  
G01                                                                  21706798.190                       -2482.213          18.000  
G07                                                                  22552891.036                       -2571.332          25.000  
> 2025 11 08 14 13 39.9970000  0 36                     
S37  35537018.528   186748269.812        -214.299          42.000  
J07  35537022.524   186748320.099        -214.001          38.000    35537017.990   145518188.278        -166.349          44.000  
S29  35933186.006   188830134.588        -215.854          42.000  
G03  20464596.208   107542186.962        -212.749          45.000    20464592.998    83799099.099        -165.287          39.000  
G14  19063639.557   100180070.136         837.932          44.000    19063633.750    78062390.261         653.430          45.000  
C09  35752535.859   186172835.423       -1481.279          40.000    35752534.053   143960631.851       -1145.184          45.000  
C06  36575514.396   190458299.838       -1801.998          40.000    36575511.649   147274430.500       -1393.782          43.000  
C07  35604844.706   185403773.399          23.733          42.000    35604836.218   143365913.584          18.464          42.000  
C25  20724479.018   107917803.247        -635.767          46.000                                                                  
C24  22958020.432   119548460.704       -3177.851          45.000                                                                  
C34  21692595.689   112959036.972       -1413.584          46.000                                                                  
R12  21198598.414   113239109.487        3504.569          43.000    21198593.226    88074838.323        2724.850          36.000  
R11  18200226.070    97256491.112        -139.101          49.000    18200219.001    75643905.323        -108.497          47.000  
R21  20266912.609   108452345.716       -2534.039          49.000    20266903.878    84351786.808       -1971.554          42.000  
R22  19779925.331   105586567.391         218.987          47.000    19779922.200    82122893.126         169.543          44.000  
R10  20307917.187   108252625.718       -3753.811          44.000                                                                  
G17  21046389.882   110599492.085         346.330          45.000    21046382.910    86181428.832         268.776          38.000  
G22  20370202.599   107046105.332        1709.668          45.000                                                                  
G30  21485225.895   112905590.903       -2694.878          41.000    21485228.116    87978391.733       -2099.897          38.000  
J02  36897850.500   193899523.570         930.774          43.000    36897845.841   151090518.999         726.276          42.000  
J03  37983898.310                        -985.591          25.000    37983889.692                        -768.386          25.000  
E13  23303690.107   122461707.870        1009.247          43.000    23303692.874    93834312.032         773.917          48.000  
C40  36076191.854   187858195.426         -71.656          45.000                                                                  
C10  36440909.986   189757381.105          37.579          40.000    36440904.832   146732417.713          28.919          41.000  
R06  22652336.548                        2205.302          25.000                                                                  
G06  21114362.124   110956721.0552       1670.673          29.000    21114358.156                        1303.334          23.000  
E15  22781629.936   119718272.282       -1511.121          47.000    22781630.364    91732179.747       -1157.543          48.000  
S28  36332910.468   190930735.896        -220.707          40.000  
E18  19252535.006   101172766.351        3099.384          46.000    19252534.067    77521974.609        2374.743          47.000  
E27  22953486.940   120621374.320        1021.898          46.000    22953486.508    92424177.018         783.008          46.000  
G19  21606600.308   113543448.780        1252.682          44.000                                                                  
E30  23391068.096   122920875.400       -1290.562          45.000    23391069.015    94186142.125        -988.835          46.000  
C11                                                                  21346906.442    85955142.822        -636.199          47.000  
C16                                                                  37040698.996   149147542.954       -1396.838          43.000  
G01                                                                  21707406.411                       -2484.938          19.000  
G07                                                                  22553511.177                       -2574.066          26.000  
> 2025 11 08 14 13 40.9970000  0 35                     
S37  35537058.513   186748480.026        -210.138          43.000  
J07  35537062.587   186748530.321        -210.068          39.000    35537058.062   145518352.143        -163.822          45.000  
S29  35933226.280   188830346.545        -212.817          43.000  
G03  20464636.052   107542396.721        -210.304          44.000    20464632.894    83799262.509        -163.383          41.000  
G14  19063479.413   100179228.634         840.637          45.000    19063473.602    78061734.536         654.938          46.000  
C09  35752819.522   186174312.942       -1477.200          41.000    35752817.753   143961774.388       -1142.728          45.000  
C06  36575860.033   190460099.839       -1800.035          40.000    36575857.271   147275822.404       -1391.811          42.000  
C07  35604839.475   185403745.967          26.597          43.000    35604830.990   143365892.388          19.465          41.000  
C25  20724600.523   107918436.454        -634.079          47.000                                                                  
C24  22958629.971   119551635.178       -3173.737          47.000                                                                  
C34  21692866.599   112960447.502       -1411.204          48.000                                                                  
R12  21197941.775   113235601.747        3506.624          42.000    21197936.595    88072110.087        2726.319          33.000  
R11  18200251.607    97256627.601        -137.529          48.000    18200244.626    75644011.484        -106.689          46.000  
R21  20267385.549   108454876.874       -2531.511          49.000    20267376.837    84353755.466       -1969.044          41.000  
R22  19779883.936   105586346.163         220.303          49.000    19779880.743    82122721.038         172.498          43.000  
R10  20308621.032   108256377.522       -3751.338          43.000                                                                  
G17  21046323.206   110599142.255         349.473          45.000    21046316.297    86181156.172         271.987          39.000  
G22  20369876.624   107044392.676        1712.018          46.000                                                                  
G30  21485738.191   112908283.320       -2692.446          42.000    21485740.490    87980489.699       -2097.965          38.000  
J02  36897672.426   193898588.084         934.923          44.000    36897667.845   151089790.118         728.897          43.000  
J03  37984091.779                        -983.162          23.000    37984077.135                        -764.289          24.000  
E13  23303497.544   122460695.583        1011.775          43.000    23303500.200    93833536.408         775.278          48.000  
C40  36076205.050   187858263.481         -68.135          46.000                                                                  
C10  36440902.149   189757340.159          40.549          40.000    36440896.953   146732386.046          30.217          40.000  
E15  22781917.025   119719781.110       -1509.257          45.000    22781917.707    91733335.904       -1156.219          47.000  
S28  36332951.673   190930952.379        -217.634          42.000  
E18  19251944.867   101169664.101        3101.160          46.000    19251943.770    77519597.556        2376.604          47.000  
E27  22953292.035   120620349.783        1024.207          45.000    22953291.474    92423391.992         784.582          46.000  
G19  21606361.154   113542192.223        1254.938          42.000                                                                  
E30  23391313.249   122922163.116       -1287.890          46.000    23391314.082    94187128.813        -986.399          46.000  
C11                                                                  21347063.927    85955776.939        -634.443          47.000  
C16                                                                  37041045.330   149148937.331       -1393.957          43.000  
G01                                                                  21708009.955                       -2478.149          20.000  
G07                                                                  22554129.490                       -2562.406          27.000  
G06                                                                  21114043.771    86458478.9211       1304.084          25.000  
> 2025 11 08 14 13 41.9970000  0 35                     
S37  35537098.876   186748714.3903       -207.958          41.000  
J07  35537102.874   186748735.2063       -208.622          39.000    35537098.302   145518516.795        -161.420          45.000  
S29  35933266.902   188830591.2313       -210.678          42.000  
G03  20464676.356   107542599.5333       -208.773          45.000    20464673.166    83799427.187        -161.154          39.000  
G14  19063319.607   100178419.7093        841.726          44.000    19063313.764    78061080.029         655.975          46.000  
C09  35753103.588   186175791.8893      -1476.592          39.000    35753101.786   143962917.985       -1141.536          46.000  
C06  36576206.027   190461902.5943      -1798.494          41.000    36576203.118   147277215.296       -1391.013          42.000  
C07  35604834.607   185403716.8503         28.892          42.000    35604825.891   143365871.790          21.729          43.000  
C25  20724722.540   107919068.2993       -633.279          46.000                                                                  
C24  22959240.012   119554787.0153      -3171.698          46.000                                                                  
C34  21693137.860   112961860.8473      -1409.438          47.000                                                                  
R12  21197285.354   113232095.148        3508.797          40.000    21197280.583    88069385.7853       2727.915          32.000  
R11  18200277.607    97256765.0373       -136.091          49.000    18200270.497    75644119.159        -106.043          47.000  
R21  20267858.774   108457405.8863      -2529.861          49.000    20267850.023    84355724.826       -1967.941          42.000  
R22  19779842.976   105586144.7943        222.030          50.000    19779839.474    82122550.066         172.343          43.000  
R10  20309325.244   108260131.4593      -3749.543          44.000                                                                  
G17  21046256.765   110598824.8063        350.763          45.000    21046249.873    86180884.292         273.859          40.000  
G22  20369551.022   107042712.3303       1712.941          44.000                                                                  
G30  21486250.820   112911010.1313      -2690.379          44.000    21486253.097    87982588.765       -2096.783          39.000  
J02  36897494.648   193897642.1253        937.739          43.000    36897489.966   151089061.989         730.983          43.000  
E13  23303305.182   122459694.8141       1012.863          43.000    23303307.803    93832763.9131        776.216          47.000  
C40  36076218.625   187858337.3503        -66.735          45.000                                                                  
C10  36440894.389   189757300.059          42.111          40.000    36440889.237   146732355.024          31.818          43.000  
E15  22782204.533   119721292.1221      -1507.205          45.000    22782205.098    91734492.899       -1154.840          47.000  
S28  36332993.284   190931167.5313       -215.913          43.000  
E18  19251354.861   101166551.9301       3103.531          46.000    19251353.696    77517221.368        2377.983          46.000  
E27  22953097.442   120619340.4271       1025.731          45.000    22953096.738    92422607.861         786.201          46.000  
G19  21606122.354   113540938.5143       1257.284          44.000                                                                  
E30  23391558.554   122923469.2001      -1285.333          46.000    23391559.247    94188115.5721       -984.749          46.000  
C11                                                                  21347221.628    85956411.879        -633.707          47.000  
C16                                                                  37041391.809   149150332.708       -1393.296          42.000  
G01                                                                  21708616.871                       -2476.491          20.000  
G07                                                                  22554752.586    92357940.5791      -2565.310          27.000  
J03                                                                  37984267.198                        -758.077          24.000  
G06                                                                  21113723.755                        1302.167          25.000  
> 2025 11 08 14 13 42.9970000  0 35                     
S37  35537138.594   186748922.9942       -209.291          42.000  
J07  35537142.617   186748943.2831       -209.375          39.000    35537137.984   145518679.402        -163.541          44.000  
S29  35933306.991   188830802.1302       -211.897          42.000  
G03  20464716.122   107542807.8871       -209.641          41.000    20464712.913    83799590.053        -162.162          35.000  
G14  19063159.483   100177577.725         840.882          45.000    19063153.618    78060423.946         655.233          46.000  
C09  35753387.139   186177268.6432      -1477.142          40.000    35753385.266   143964059.887       -1142.231          45.000  
C06  36576551.430   190463701.5332      -1800.177          42.000    36576548.516   147278606.323       -1391.768          44.000  
C07  35604828.897   185403687.7042         28.010          42.000    35604820.275   143365849.235          22.333          45.000  
C25  20724844.164   107919701.4122       -635.603          44.000                                                                  
C24  22959849.420   119557960.3212      -3174.188          46.000                                                                  
C34  21693408.248   112963269.4872      -1409.331          48.000                                                                  
R12  21196628.484   113228586.819        3505.543          40.000    21196626.691    88066668.9592       2728.613          33.000  
R11  18200303.109    97256901.8512       -138.771          48.000    18200296.115    75644225.548        -107.325          46.000  
R21  20268331.422   108459935.2872      -2530.108          49.000    20268322.609    84357692.074       -1967.506          37.000  
R22  19779801.468   105585923.2862        218.710          45.000    19779797.931    82122377.814         170.963          43.000  
R10  20310028.917   108263882.6022      -3752.397          44.000                                                                  
G17  21046189.877   110598472.9401        351.109          45.000    21046183.171    86180610.506         273.067          38.000  
G22  20369224.936   107040998.802        1712.022          45.000                                                                  
G30  21486763.034   112913701.819       -2692.873          41.000    21486765.337    87984686.196       -2098.107          40.000  
J02  36897316.295   193896704.2761        936.880          43.000    36897311.594   151088331.626         730.459          43.000  
E13  23303112.417   122458682.147        1011.361          42.000    23303115.114    93831988.021         774.874          46.000  
C40  36076231.087   187858403.4392        -66.587          46.000                                                                  
C10  36440886.346   189757257.498          41.843          41.000    36440881.084   146732322.127          32.591          42.000  
E15  22782491.071   119722799.686       -1508.693          43.000    22782491.926    91735648.066       -1155.425          44.000  
S28  36333034.303   190931382.9962       -216.619          42.000  
E18  19250764.291   101163448.399        3102.495          45.000    19250762.574    77514843.286        2376.961          41.000  
E27  22952901.869   120618314.803        1024.766          43.000    22952901.542    92421821.993         785.399          43.000  
G19  21605882.976   113539680.687        1257.056          43.000                                                                  
E30  23391803.433   122924755.654       -1286.632          46.000    23391804.141    94189101.297        -985.972          45.000  
C11                                                                  21347378.876    85957044.956        -633.525          46.000  
C16                                                                  37041737.956   149151726.251       -1394.174          42.000  
G01                                                                  21709221.267                       -2479.194          22.000  
G07                                                                  22555377.218    92360498.2621      -2566.560          31.000  
J03                                                                  37984454.807                        -766.348          23.000  
G06                                                                  21113405.464                        1302.195          25.000  
> 2025 11 08 14 13 43.9970000  0 35                     
S37  35537179.070   186749135.3062       -215.488          43.000  
J07  35537183.053   186749155.589        -215.182          39.000    35537178.337   145518844.800        -167.990          44.000  
S29  35933347.967   188831016.9732       -219.504          41.000  
G03  20464756.657   107543021.124        -216.173          46.000    20464753.453    83799756.122        -169.211          41.000  
G14  19062999.978   100176740.240         834.242          44.000    19062994.260    78059771.383         649.789          46.000  
C09  35753671.552   186178749.4512      -1485.041          40.000    35753669.680   143965204.978       -1148.022          45.000  
C06  36576897.713   190465504.2662      -1805.731          42.000    36576894.763   147280000.320       -1396.648          45.000  
C07  35604824.174   185403662.5162         21.931          42.000    35604815.466   143365829.800          16.420          42.000  
C25  20724966.633   107920338.9522       -641.545          45.000                                                                  
C24  22960459.604   119561137.3252      -3179.859          47.000                                                                  
C34  21693679.585   112964682.0642      -1415.143          47.000                                                                  
R12  21195972.486   113225082.671        3501.056          42.000    21195972.653                        2721.924          33.000  
R11  18200329.712    97257043.5852       -146.292          48.000    18200322.626    75644335.803        -113.345          45.000  
R21  20268804.801   108462468.7802      -2536.644          51.000    20268796.137    84359662.655       -1974.032          41.000  
R22  19779760.856   105585706.2142        214.480          49.000    19779757.240    82122209.071         164.791          41.000  
R10  20310733.414   108267637.8312      -3758.967          44.000                                                                  
G17  21046123.805   110598125.675         343.619          45.000    21046117.008    86180339.954         268.075          39.000  
G22  20368899.670   107039289.681        1705.200          45.000                                                                  
G30  21487276.122   112916397.602       -2699.540          41.000    21487278.264    87986786.656       -2102.125          40.000  
J02  36897138.667   193895770.662         931.419          43.000    36897134.013   151087604.130         724.800          42.000  
E13  23302920.702   122457673.887        1003.728          43.000    23302923.160    93831215.448         768.919          47.000  
C40  36076244.631   187858473.4642        -72.922          45.000                                                                  
C10  36440878.683   189757218.946          35.023          39.000    36440873.683   146732292.299          27.538          42.000  
G07  22556037.433                       -3294.775          31.000    22556000.666    92363051.6981      -2573.931          30.000  
E15  22782778.661   119724311.591       -1516.772          45.000    22782779.053    91736806.534       -1161.586          44.000  
S28  36333075.983   190931602.4502       -222.354          42.000  
E18  19250174.515   101160349.146        3095.139          47.000    19250172.831    77512468.531        2371.060          46.000  
E27  22952707.621   120617293.462        1017.085          45.000    22952707.032    92421039.395         779.412          45.000  
G19  21605644.395   113538427.001        1250.749          44.000                                                                  
E30  23392049.008   122926046.112       -1294.698          45.000    23392049.593    94190090.083        -991.881          44.000  
C11                                                                  21347536.945    85957681.236        -639.178          47.000  
C16                                                                  37042084.830   149153122.678       -1399.414          42.000  
G01                                                                  21709826.629                       -2480.160          22.000  
J03                                                                  37984643.252                        -773.770          24.000  
G06                                                                  21113092.116                        1307.226          26.000  
> 2025 11 08 14 13 44.9970000  0 36                     
S37  35537218.342   186749341.9872       -205.526          43.000  
J07  35537222.309   186749362.263        -205.757          41.000    35537217.613   145519005.872        -160.725          45.000  
S29  35933387.695   188831225.9192       -207.905          43.000  
G01  21710392.503                       -3179.648          32.000    21710423.415    88900554.4251      -2477.027          30.000  
G03  20464796.268   107543229.306        -208.755          45.000    20464793.007    83799918.303        -162.466          38.000  
G14  19062839.559   100175897.632         842.847          43.000    19062833.887    78059114.799         656.770          45.000  
C09  35753954.931   186180224.608       -1474.156          41.000    35753953.012   143966345.617       -1140.080          46.000  
C06  36577242.930   190467300.8841      -1797.460          39.000    36577239.859   147281389.943       -1389.998          43.000  
C07  35604818.313   185403631.0951         30.428          42.000    35604809.493   143365805.817          24.044          42.000  
C25  20725087.998   107920971.340        -633.124          45.000                                                                  
C24  22961068.501   119564308.868       -3171.014          47.000                                                                  
C34  21693949.813   112966088.982       -1407.369          46.000                                                                  
R12  21195315.508   113221570.5443       3508.233          44.000    21195317.935                        2727.956          34.000  
R11  18200355.360    97257180.434        -137.986          48.000    18200348.080    75644442.187        -106.024          44.000  
R21  20269277.151   108464996.464       -2528.268          48.000    20269268.434    84361628.636       -1966.811          41.000  
R22  19779719.055   105585483.3361        220.806          47.000    19779715.430    82122035.962         173.121          44.000  
R10  20311436.896   108271387.2461      -3749.330          45.000                                                                  
G17  21046056.586   110597772.605         352.642          46.000    21046049.813    86180064.785         274.587          38.000  
G22  20368573.356   107037575.062        1714.600          46.000                                                                  
G30  21487787.941   112919087.581       -2688.850          42.000    21487790.097    87988882.869       -2095.625          40.000  
J02  36896959.958   193894831.542         939.628          42.000    36896955.223   151086872.299         732.269          43.000  
E13  23302727.289   122456660.106        1014.011          43.000    23302730.229    93830438.627         777.171          48.000  
C40  36076257.135   187858537.684         -64.691          45.000                                                                  
C10  36440870.297   189757174.581          44.080          41.000    36440865.138   146732257.950          34.567          39.000  
R06  22650264.858                        2213.564          24.000                                                                  
E15  22783065.212   119725818.125       -1506.021          42.000    22783066.105    91737960.895       -1154.483          47.000  
S28  36333116.583   190931816.2512       -214.584          40.000  
E18  19249583.608   101157244.334        3104.438          46.000    19249581.815    77510089.545        2378.784          45.000  
E27  22952512.110   120616266.643        1026.997          44.000    22952511.548    92420252.624         787.262          45.000  
G19  21605404.608   113537167.375        1259.413          44.000                                                                  
E30  23392293.688   122927331.215       -1283.946          45.000    23392294.043    94191074.774        -984.441          45.000  
C11                                                                  21347693.846    85958313.206        -631.931          47.000  
C16                                                                  37042430.590   149154514.729       -1391.632          42.000  
G07                                                                  22556627.461                       -2562.978          22.000  
J03                                                                  37984832.399                        -764.295          22.000  
G06                                                                  21112775.105                        1306.574          27.000  
> 2025 11 08 14 13 45.9970000  0 35                     
S37  35537257.802   186749549.9222       -206.173          42.000  
J07  35537261.862   186749570.225        -206.643          38.000    35537257.168   145519167.835        -160.105          45.000  
S29  35933427.481   188831434.7452       -204.708          42.000  
G01  21711009.063                       -3181.813          28.000    21711023.985    88903013.452       -2481.276          28.000  
G03  20464836.449   107543441.046        -213.191          40.000    20464833.287    83800083.250        -164.171          35.000  
G14  19062679.512   100175056.825         842.191          44.000    19062673.794    78058459.568         656.734          46.000  
C09  35754238.346   186181699.606       -1472.553          39.000    35754236.261   143967486.186       -1137.875          45.000  
C06  36577588.035   190469097.785       -1794.208          39.000    36577584.834   147282779.429       -1387.314          43.000  
C07  35604812.500   185403601.545          31.099          41.000    35604803.923   143365783.002          24.340          41.000  
C25  20725209.569   107921604.510        -629.748          47.000                                                                  
C24  22961677.742   119567481.380       -3169.611          46.000                                                                  
C34  21694220.408   112967498.213       -1408.766          45.000                                                                  
R12  21194658.644   113218062.5112       3508.857          44.000    21194660.857                        2729.510          34.000  
R11  18200381.203    97257318.992        -135.454          46.000    18200374.001    75644549.977        -105.638          45.000  
R21  20269749.978   108467526.552       -2529.629          48.000    20269741.167    84363596.347       -1965.826          35.000  
R22  19779677.197   105585261.063         226.416          45.000    19779673.835    82121863.061         175.238          41.000  
R10  20312140.602   108275138.604       -3749.732          44.000                                                                  
G17  21045989.610   110597420.786         353.893          44.000    21045982.892    86179790.637         275.406          37.000  
G22  20368247.366   107035862.014        1715.224          44.000                                                                  
G30  21488299.796   112921777.316       -2685.300          42.000    21488302.134    87990978.777       -2093.417          41.000  
J02  36896781.611   193893894.386         938.739          45.000    36896776.860   151086142.037         731.144          45.000  
E13  23302534.981   122455646.451        1016.861          45.000    23302537.307    93829661.931         779.433          48.000  
C40  36076269.762   187858603.750         -64.900          43.000                                                                  
C10  36440861.746   189757131.187          45.379          41.000    36440856.766   146732224.380          35.068          39.000  
E15  22783352.509   119727326.625       -1507.779          44.000    22783353.280    91739116.792       -1155.261          48.000  
S28  36333157.142   190932029.5422       -210.628          38.000  
E18  19248992.951   101154141.618        3104.469          45.000    19248991.588    77507712.147        2377.706          47.000  
E27  22952316.904   120615241.509        1026.529          44.000    22952316.589    92419467.125         786.795          45.000  
G19  21605165.009   113535908.202        1261.866          44.000                                                                  
E30  23392538.464   122928618.749       -1286.558          45.000    23392539.275    94192061.270        -985.909          46.000  
C11                                                                  21347851.111    85958946.205        -631.627          45.000  
C16                                                                  37042776.320   149155906.619       -1388.603          44.000  
G07                                                                  22557248.263                       -2563.840          31.000  
J03                                                                  37985020.392                        -762.286          20.000  
G06                                                                  21112458.304                        1307.937          26.000  
> 2025 11 08 14 13 46.9970000  0 35                     
S37  35537297.069   186749755.8352       -205.677          42.000  
J07  35537301.131   186749776.124        -205.017          38.000    35537296.480   145519328.312        -160.499          45.000  
S29  35933466.326   188831639.2622       -202.640          44.000  
G01  21711606.809                       -3186.719          38.000    21711611.192    88905495.562       -2483.958          33.000  
G03  20464877.119   107543654.970        -213.756          36.000    20464874.029    83800250.001        -168.292          32.000  
G14  19062519.416   100174215.441         840.958          45.000    19062513.615    78057803.895         656.389          45.000  
C09  35754520.836   186183170.141       -1469.544          42.000    35754518.625   143968623.234       -1135.945          41.000  
C06  36577932.062   190470890.237       -1792.800          41.000    36577929.063   147284165.384       -1385.038          43.000  
C07  35604806.822   185403571.695          30.192          42.000    35604798.150   143365759.839          24.202          37.000  
C25  20725330.548   107922234.816        -629.924          47.000                                                                  
C24  22962286.486   119570651.183       -3169.287          42.000                                                                  
C34  21694491.559   112968908.951       -1411.332          48.000                                                                  
R12  21194001.979   113214554.1451       3508.202          39.000    21194001.206    88055760.6513       2727.750          33.000  
R11  18200406.847    97257456.239        -137.329          47.000    18200399.658    75644656.703        -107.695          45.000  
R21  20270222.997   108470058.277       -2532.238          49.000    20270214.321    84365565.536       -1969.273          40.000  
R22  19779635.062   105585035.831         225.558          47.000    19779631.513    82121687.771         175.511          40.000  
R10  20312843.750   108278887.605       -3749.081          40.000                                                                  
G17  21045922.566   110597068.515         352.488          44.000    21045915.935    86179516.131         274.629          37.000  
G22  20367921.336   107034148.457        1714.071          45.000                                                                  
G30  21488810.613   112924462.311       -2682.604          43.000    21488813.068    87993070.898       -2091.148          39.000  
J02  36896603.348   193892957.361         936.846          44.000    36896598.608   151085411.837         729.668          44.000  
E13  23302341.287   122454628.829        1018.415          45.000    23302343.722    93828882.108         781.309          44.000  
C40  36076282.479   187858670.442         -66.976          45.000                                                                  
C10  36440853.204   189757086.589          44.685          39.000    36440848.129   146732189.823          35.427          37.000  
G07  22557889.926   118542510.8633      -3286.953          32.000    22557876.780                       -2559.619          27.000  
E15  22783640.163   119728835.640       -1509.598          47.000    22783640.483    91740272.970       -1156.360          45.000  
S28  36333196.832   190932238.1082       -209.054          39.000  
E18  19248402.726   101151039.419        3102.487          44.000    19248401.808    77505335.171        2376.729          48.000  
E27  22952122.114   120614216.065        1025.533          45.000    22952121.705    92418681.390         785.682          45.000  
G19  21604924.972   113534647.056        1262.120          43.000                                                                  
E30  23392783.372   122929906.278       -1287.928          46.000    23392784.154    94193047.765        -986.736          48.000  
C11                                                                  21348008.349    85959578.896        -632.742          46.000  
C16                                                                  37043121.173   149157295.189       -1388.229          42.000  
J03                                                                  37985209.436                        -763.920          18.000  
G06                                                                  21112143.087                        1303.046          32.000  
> 2025 11 08 14 13 47.9970000  0 35                     
S37  35537336.085   186749960.9702       -202.948          41.000  
J07  35537340.243   186749981.284        -203.265          38.000    35537335.386   145519488.148        -157.954          44.000  
S29  35933504.885   188831841.4553       -202.028          45.000  
G01  21712207.159   114098418.2263      -3188.374          42.000    21712204.347    88907979.842       -2484.379          36.000  
G03  20464918.243   107543870.862        -214.734          37.000    20464915.102    83800418.217        -167.643          34.000  
G14  19062359.483   100173374.850         840.792          44.000    19062353.782    78057148.924         655.141          45.000  
C09  35754802.928   186184638.869       -1467.501          42.000    35754800.611   143969758.918       -1134.867          41.000  
C06  36578275.831   190472680.404       -1788.387          41.000    36578272.829   147285549.621       -1382.978          43.000  
C07  35604801.390   185403542.648          28.424          44.000    35604792.629   143365737.451          22.750          42.000  
C25  20725451.566   107922864.704        -629.551          49.000                                                                  
C24  22962894.861   119573819.400       -3166.705          45.000                                                                  
C34  21694762.729   112970321.524       -1412.467          47.000                                                                  
R12  21193345.551   113211047.771        3507.737          40.000    21193345.536                        2724.469          27.000  
R11  18200432.550    97257594.094        -137.594          49.000    18200425.341    75644763.875        -106.941          42.000  
R21  20270696.444   108472592.206       -2535.195          49.000    20270687.882    84367536.376       -1971.998          41.000  
R22  19779592.748   105584810.087         225.501          47.000    19779589.151    82121512.253         176.105          37.000  
R10  20313546.790   108282635.448       -3745.648          42.000                                                                  
G17  21045855.710   110596717.315         350.580          45.000    21045849.180    86179242.474         273.455          38.000  
G22  20367595.472   107032436.010        1711.726          45.000                                                                  
G30  21489321.163   112927144.894       -2681.103          47.000    21489323.539    87995161.157       -2089.117          37.000  
J02  36896425.102   193892020.856         937.450          45.000    36896420.240   151084682.097         730.429          45.000  
E13  23302147.367   122453609.877        1019.978          45.000    23302149.899    93828101.372         781.345          44.000  
C40  36076295.679   187858738.564         -68.083          46.000                                                                  
C10  36440844.750   189757042.541          43.783          41.000    36440839.662   146732155.818          34.376          40.000  
G07  22558488.028   118545654.5352      -3284.615          37.000    22558502.810                       -2557.753          33.000  
E15  22783927.387   119730345.881       -1510.385          46.000    22783927.854    91741430.204       -1157.169          47.000  
S28  36333236.221   190932444.3623       -206.080          37.000  
E18  19247812.498   101147938.863        3100.591          46.000    19247811.856    77502959.405        2375.332          48.000  
E27  22951927.538   120613191.564        1024.141          46.000    22951927.023    92417896.373         784.734          47.000  
G19  21604684.954   113533386.148        1260.233          42.000                                                                  
E30  23393028.734   122931194.166       -1286.696          44.000    23393029.118    94194034.590        -985.601          46.000  
C11                                                                  21348165.737    85960212.381        -634.209          46.000  
C16                                                                  37043465.583   149158681.894       -1385.273          40.000  
J03                                                                  37985397.211                        -770.482          18.000  
G06                                                                  21111827.123    86449402.2191       1304.449          26.000  
> 2025 11 08 14 13 48.9970000  0 35                     
S37  35537374.918   186750165.1682       -201.873          40.000  
J07  35537379.151   186750185.465        -202.399          38.000    35537374.247   145519647.265        -157.216          44.000  
S29  35933543.231   188832043.2962       -198.884          41.000  
G01  21712813.455   114101608.1442      -3189.950          42.000    21712809.359    88910465.517       -2485.139          39.000  
G03  20464959.430   107544087.440        -215.261          39.000    20464956.333    83800586.973        -167.540          35.000  
G14  19062199.629   100172535.321         841.006          44.000    19062194.033    78056494.741         655.151          45.000  
C09  35755084.784   186186106.745       -1464.781          40.000    35755082.477   143970893.974       -1133.047          41.000  
C06  36578619.231   190474469.133       -1787.175          38.000    36578616.398   147286932.808       -1382.124          41.000  
C07  35604796.036   185403514.657          29.376          42.000    35604787.349   143365715.845          22.101          45.000  
C25  20725572.672   107923494.908        -629.435          47.000                                                                  
C24  22963502.976   119576985.981       -3165.039          45.000                                                                  
C34  21695034.337   112971735.595       -1413.455          48.000                                                                  
R12  21192689.691   113207544.4942       3500.742          38.000    21192686.467    88050298.7123       2724.217          26.000  
R11  18200458.600    97257732.804        -136.499          49.000    18200451.272    75644871.792        -106.360          44.000  
R21  20271170.400   108475127.972       -2535.792          51.000    20271161.711    84369508.630       -1972.476          43.000  
R22  19779550.595   105584585.307         225.945          49.000    19779547.037    82121337.413         176.135          37.000  
R10  20314249.672   108286382.121       -3744.739          42.000                                                                  
G17  21045789.159   110596367.563         350.998          44.000    21045782.607    86178969.939         273.006          39.000  
G22  20367269.774   107030724.913        1712.687          44.000                                                                  
G30  21489831.459   112929826.121       -2679.358          44.000    21489833.801    87997250.451       -2087.605          34.000  
J02  36896246.764   193891084.332         938.575          43.000    36896242.067   151083952.333         730.905          47.000  
E13  23301953.295   122452590.641        1021.569          42.000    23301955.886    93827320.376         782.097          43.000  
C40  36076309.023   187858807.987         -68.344          46.000                                                                  
C10  36440836.650   189756999.619          44.271          40.000    36440831.470   146732122.646          33.620          41.000  
E15  22784215.006   119731857.313       -1510.700          45.000    22784215.333    91742588.314       -1157.526          47.000  
S28  36333275.504   190932651.0973       -205.117          35.000  
E18  19247222.957   101144839.826        3100.323          47.000    19247221.913    77500584.751        2374.903          47.000  
E27  22951732.728   120612168.193        1024.500          43.000    22951732.210    92417112.204         784.809          46.000  
G19  21604445.245   113532126.407        1260.624          41.000                                                                  
E30  23393273.774   122932481.808       -1286.231          42.000    23393274.260    94195021.249        -985.738          47.000  
C11                                                                  21348323.238    85960846.757        -633.178          45.000  
C16                                                                  37043809.655   149160067.406       -1384.445          41.000  
G07                                                                  22559122.399    92375834.5821      -2556.841          32.000  
J03                                                                  37985583.786                        -763.453          21.000  
G06                                                                  21111512.969                        1298.531          26.000  
> 2025 11 08 14 13 49.9970000  0 35                     
S37  35537413.575   186750368.430        -202.533          42.000  
J07  35537417.766   186750388.723        -202.728          38.000    35537413.002   145519805.616        -158.387          44.000  
S29  35933581.581   188832244.709        -201.410          44.000  
G01  21713419.002   114104798.853       -3191.074          43.000    21713415.225    88912951.781       -2486.879          43.000  
G03  20465000.744   107544304.343        -217.323          42.000    20464997.489    83800755.915        -168.602          40.000  
G14  19062040.066   100171696.545         838.430          45.000    19062034.490    78055841.164         653.924          46.000  
C09  35755366.548   186187574.230       -1467.254          43.000    35755364.366   143972028.730       -1134.535          43.000  
C06  36578962.587   190476256.915       -1787.529          42.000    36578959.680   147288315.186       -1382.064          41.000  
C07  35604790.712   185403487.301          27.203          44.000    35604782.077   143365694.605          21.469          43.000  
C25  20725693.752   107924125.417        -629.569          46.000                                                                  
C24  22964110.962   119580151.434       -3165.363          46.000                                                                  
C34  21695305.921   112973150.327       -1415.038          46.000                                                                  
R12  21192037.599                1       3503.662          33.000    21192030.843    88047574.1763       2729.211          24.000  
R11  18200484.682    97257872.404        -139.801          49.000    18200477.373    75644980.357        -108.469          43.000  
R21  20271644.447   108477664.800       -2537.164          50.000    20271635.779    84371481.712       -1973.118          43.000  
R22  19779508.618   105584361.429         222.421          49.000    19779505.050    82121163.207         175.710          37.000  
R10  20314952.388   108290127.903       -3746.058          42.000                                                                  
G17  21045722.820   110596018.851         348.558          45.000    21045716.202    86178698.140         271.962          39.000  
G22  20366944.470   107029014.830        1709.365          46.000                                                                  
G30  21490341.607   112932506.570       -2679.807          45.000    21490343.903    87999339.111       -2088.982          38.000  
J02  36896068.418   193890147.375         936.862          44.000    36896063.704   151083222.271         730.257          46.000  
E13  23301759.491   122451571.441        1018.819          44.000    23301762.049    93826539.414         781.082          44.000  
C40  36076322.248   187858877.980         -69.636          46.000                                                                  
C10  36440828.560   189756957.365          42.456          42.000    36440823.378   146732089.992          32.300          41.000  
G06  21111192.770   110940066.7802       1670.836          35.000    21111198.401                        1307.811          26.000  
G07  22559736.138   118552213.2212      -3280.191          36.000    22559749.575                       -2552.216          27.000  
E15  22784502.454   119733369.413       -1512.455          45.000    22784502.894    91743746.923       -1158.982          46.000  
S28  36333315.383   190932860.6373       -205.043          37.000  
E18  19246633.712   101141741.638        3097.539          48.000    19246632.153    77498210.830        2373.341          48.000  
E27  22951538.174   120611145.620        1022.369          47.000    22951537.512    92416328.674         783.326          46.000  
G19  21604205.720   113530867.790        1259.531          39.000                                                                  
E30  23393518.656   122933768.950       -1287.427          45.000    23393519.320    94196007.477        -986.433          48.000  
C11                                                                  21348480.983    85961481.928        -635.245          47.000  
C16                                                                  37044153.582   149161452.039       -1384.155          38.000  
J03                                                                  37985772.420                        -766.444          21.000  
> 2025 11 08 14 13 50.9970000  0 35                     
S37  35537452.094   186750571.201        -203.088          41.000  
J07  35537456.399   186750591.510        -203.549          37.000    35537451.505   145519963.617        -158.900          44.000  
S29  35933620.012   188832446.337        -202.948          45.000  
G01  21714029.040   114107989.456       -3192.342          47.000    21714021.987    88915437.960       -2487.644          44.000  
G03  20465041.958   107544521.236        -218.102          46.000    20465038.863    83800924.962        -170.356          42.000  
G14  19061880.625   100170858.484         836.083          46.000    19061874.991    78055188.114         650.644          45.000  
C09  35755648.465   186189041.968       -1468.291          41.000    35755646.332   143973163.737       -1135.708          42.000  
C06  36579305.953   190478044.681       -1788.464          40.000    36579303.047   147289697.591       -1382.882          40.000  
C07  35604785.592   185403460.185          24.667          42.000    35604776.948   143365673.669          18.385          44.000  
C25  20725814.978   107924756.931        -635.099          46.000                                                                  
C24  22964718.774   119583316.351       -3165.283          45.000                                                                  
C34  21695577.581   112974565.189       -1417.316          46.000                                                                  
R12  21191391.643                        3496.934          36.000    21191377.928                        2722.207          25.000  
R11  18200510.939    97258013.008        -142.960          48.000    18200503.838    75645089.742        -111.887          42.000  
R21  20272118.614   108480201.948       -2539.187          51.000    20272109.989    84373455.055       -1975.008          43.000  
R22  19779466.853   105584138.726         219.687          49.000    19779463.402    82120990.103         170.893          39.000  
R10  20315655.045   108293873.478       -3745.679          42.000                                                                  
G17  21045656.528   110595670.705         345.253          45.000    21045649.944    86178426.879         269.832          39.000  
G22  20366619.242   107027305.510        1707.020          46.000                                                                  
G30  21490851.772   112935187.270       -2681.252          45.000    21490854.024    88001427.915       -2088.661          34.000  
J02  36895890.131   193889209.893         936.239          44.000    36895885.294   151082491.786         729.290          44.000  
E13  23301565.745   122450552.889        1017.077          44.000    23301568.463    93825758.962         779.064          44.000  
C40  36076335.632   187858948.151         -72.891          44.000                                                                  
C10  36440820.397   189756915.610          39.345          41.000    36440815.409   146732057.689          29.637          41.000  
G06  21110872.649                        1663.523          31.000    21110879.357                        1296.416          24.000  
G07  22560362.295   118555494.0202      -3279.721          40.000    22560372.424    92380953.0701      -2555.521          28.000  
E15  22784790.510   119734881.881       -1515.203          44.000    22784790.603    91744905.812       -1160.998          47.000  
S28  36333354.515                        -199.316          29.000  
E18  19246044.663   101138643.919        3095.567          48.000    19246042.490    77495837.267        2371.489          47.000  
E27  22951343.549   120610123.545        1019.880          46.000    22951342.719    92415545.527         781.157          46.000  
G19  21603966.444   113529610.101        1256.220          40.000                                                                  
E30  23393763.367   122935055.715       -1288.186          44.000    23393764.074    94196993.456        -987.164          47.000  
C11                                                                  21348638.857    85962117.484        -637.835          47.000  
C16                                                                  37044497.407   149162836.630       -1384.913          38.000  
J03                                                                  37985956.885                        -765.577          25.000  
> 2025 11 08 14 13 51.9970000  0 35                     
S37  35537490.655   186750773.781        -203.622          41.000  
J07  35537494.997   186750794.057        -203.060          38.000    35537490.201   145520121.532        -159.603          44.000  
S29  35933658.316   188832647.536        -202.496          46.000  
G01  21714635.463   114111180.695       -3191.517          46.000    21714628.167    88917924.630       -2486.586          44.000  
G03  20465083.433   107544739.147        -219.218          46.000    20465080.179    83801094.749        -170.536          43.000  
G14  19061721.332   100170020.943         836.233          45.000    19061715.631    78054535.511         651.195          44.000  
C09  35755930.351   186190509.487       -1468.687          40.000    35755928.159   143974298.486       -1136.464          41.000  
C06  36579649.152   190479832.028       -1789.213          39.000    36579646.328   147291079.722       -1382.640          40.000  
C07  35604780.539   185403433.124          26.215          42.000    35604771.792   143365652.690          20.695          43.000  
C25  20725936.283   107925388.439        -632.557          44.000                                                                  
C24  22965326.510   119586481.181       -3166.309          47.000                                                                  
C34  21695849.235   112975980.409       -1415.472          47.000                                                                  
R12  21190734.129   113197097.3493       3500.955          34.000    21190723.853                        2724.019          30.000  
R11  18200537.344    97258154.353        -143.182          49.000    18200530.183    75645199.645        -111.178          42.000  
R21  20272592.911   108482739.559       -2538.005          51.000    20272584.173    84375428.748       -1974.006          42.000  
R22  19779425.097   105583916.155         221.802          48.000    19779421.844    82120817.095         171.099          38.000  
R10  20316357.724   108297619.174       -3747.221          43.000                                                                  
G17  21045590.395   110595322.688         347.194          45.000    21045583.807    86178155.752         270.321          39.000  
G22  20366294.153   107025596.576        1708.367          46.000                                                                  
G30  21491361.784   112937867.611       -2681.982          41.000    21491364.058    88003516.515       -2089.869          34.000  
J02  36895711.730   193888272.590         936.205          44.000    36895706.905   151081761.356         729.668          45.000  
E13  23301372.251   122449534.300        1017.068          45.000    23301374.729    93824978.507         779.692          44.000  
C40  36076349.158   187859018.441         -70.914          44.000                                                                  
C10  36440812.593   189756873.824          41.392          41.000    36440807.372   146732025.403          31.280          41.000  
G07  22560992.841   118558817.5693      -3281.450          38.000    22560995.123    92383509.194       -2556.358          28.000  
E15  22785078.305   119736394.759       -1513.676          44.000    22785078.424    91746065.044       -1159.949          46.000  
S28  36333393.667   190933271.7053       -203.357          30.000  
E18  19245455.108   101135546.671        3096.760          48.000    19245453.017    77493464.047        2372.476          46.000  
E27  22951149.045   120609101.797        1020.715          44.000    22951148.429    92414762.636         782.124          45.000  
G19  21603727.095   113528352.383        1256.569          38.000                                                                  
E30  23394008.161   122936342.794       -1288.435          43.000    23394009.054    94197979.680        -987.365          47.000  
C11                                                                  21348796.750    85962753.261        -636.510          47.000  
C16                                                                  37044841.224   149164220.862       -1384.728          36.000  
J03                                                                  37986143.757   155546908.5841       -767.580          27.000  
G06                                                                  21110563.575                        1305.009          25.000  
> 2025 11 08 14 13 52.9970000  0 35                     
S37  35537529.437   186750977.276        -203.624          42.000  
J07  35537533.709   186750997.571        -204.167          39.000    35537528.886   145520280.069        -158.929          45.000  
S29  35933696.614   188832848.827        -201.468          45.000  
G01  21715242.927   114114371.802       -3190.871          46.000    21715236.502    88920411.234       -2486.418          43.000  
G03  20465125.185   107544958.365        -219.574          44.000    20465121.873    83801265.592        -170.688          42.000  
G14  19061561.994   100169183.629         836.359          43.000    19061556.387    78053883.031         652.198          44.000  
C09  35756211.959   186191977.277       -1468.557          41.000    35756210.054   143975433.425       -1135.575          42.000  
C06  36579992.491   190481620.026       -1788.045          43.000    36579989.801   147292462.340       -1383.370          41.000  
C07  35604775.227   185403405.359          27.383          42.000    35604766.462   143365631.243          21.030          42.000  
C25  20726057.694   107926020.535        -634.287          48.000                                                                  
C24  22965934.565   119589647.516       -3166.821          45.000                                                                  
C34  21696120.668   112977395.190       -1414.711          47.000                                                                  
R12  21190076.752   113193586.3203       3499.251          30.000    21190067.392    88039416.5543       2722.384          29.000  
R11  18200563.768    97258296.551        -143.647          49.000    18200556.822    75645310.257        -111.767          43.000  
R21  20273067.073   108485276.445       -2536.780          50.000    20273058.291    84377401.871       -1972.964          41.000  
R22  19779383.442   105583693.279         222.210          48.000    19779380.105    82120643.599         174.178          35.000  
R10  20317060.762   108301366.640       -3747.809          42.000                                                                  
G17  21045524.013   110594973.664         348.624          45.000    21045517.341    86177883.782         271.685          38.000  
G22  20365968.808   107023887.224        1709.108          46.000                                                                  
G30  21491871.941   112940548.662       -2681.672          46.000    21491874.272    88005605.677       -2089.757          38.000  
J02  36895533.337   193887335.771         937.034          43.000    36895528.753   151081031.451         729.453          46.000  
E13  23301178.134   122448516.036        1017.377          44.000    23301180.935    93824198.284         780.099          44.000  
C40  36076362.438   187859088.082         -70.161          44.000                                                                  
C10  36440804.184   189756831.135          42.351          41.000    36440799.154   146731992.368          32.343          41.000  
G07  22561615.958                       -3290.013          35.000    22561619.609    92386066.266       -2556.260          29.000  
E15  22785365.846   119737907.676       -1513.482          44.000    22785366.334    91747224.272       -1159.530          46.000  
S28  36333432.695   190933477.1952       -204.004          34.000  
E18  19244865.573   101132449.084        3097.576          48.000    19244863.517    77491090.546        2373.361          46.000  
E27  22950954.476   120608079.787        1021.875          45.000    22950953.784    92413979.541         783.041          44.000  
G19  21603487.485   113527093.346        1258.792          37.000                                                                  
E30  23394253.478   122937631.228       -1288.387          44.000    23394254.304    94198966.921        -987.308          47.000  
C11                                                                  21348954.458    85963388.436        -634.637          46.000  
C16                                                                  37045185.197   149165605.798       -1385.198          40.000  
J03                                                                  37986327.832   155547674.292        -765.360          27.000  
G06                                                                  21110244.992                        1304.698          25.000  
> 2025 11 08 14 13 53.9970000  0 35                     
S37  35537568.146   186751181.193        -203.590          40.000  
J07  35537572.562   186751201.479        -203.179          37.000    35537567.770   145520438.954        -158.346          44.000  
S29  35933734.929   188833050.575        -201.163          43.000  
G01  21715850.094   114117563.086       -3189.759          45.000    21715844.000    88922897.928       -2485.667          43.000  
G03  20465167.071   107545178.458        -220.104          45.000    20465163.773    83801437.130        -171.141          41.000  
G14  19061402.769   100168347.263         837.867          44.000    19061397.109    78053231.281         653.430          44.000  
C09  35756493.834   186193445.564       -1467.590          41.000    35756492.098   143976568.798       -1135.000          42.000  
C06  36580336.244   190483408.453       -1788.941          39.000    36580333.290   147293845.217       -1382.195          38.000  
C07  35604769.931   185403377.828          29.557          41.000    35604761.240   143365610.022          22.487          44.000  
C25  20726179.178   107926653.372        -631.920          48.000                                                                  
C24  22966542.810   119592814.237       -3167.859          44.000                                                                  
C34  21696392.349   112978810.240       -1413.164          49.000                                                                  
R12  21189420.021   113190085.0942       3503.320          36.000    21189412.884                        2725.149          30.000  
R11  18200590.721    97258440.000        -141.714          48.000    18200583.736    75645421.877        -110.641          45.000  
R21  20273541.178   108487813.592       -2535.666          51.000    20273532.490    84379375.174       -1971.909          43.000  
R22  19779341.748   105583471.015         222.886          48.000    19779338.440    82120470.796         173.611          39.000  
R10  20317763.888   108305114.897       -3746.880          42.000                                                                  
G17  21045457.618   110594624.843         350.321          44.000    21045451.014    86177611.966         273.444          38.000  
G22  20365643.570   107022178.467        1710.834          45.000                                                                  
G30  21492382.203   112943230.231       -2681.814          44.000    21492384.541    88007695.172       -2088.944          36.000  
J02  36895355.233   193886399.365         937.831          45.000    36895350.485   151080301.746         730.905          43.000  
J03  37986528.773   199620555.0783       -984.178          27.000    37986511.613   155548440.208        -764.563          33.000  
E13  23300984.218   122447498.527        1018.107          43.000    23300987.136    93823418.619         780.001          43.000  
C40  36076375.827   187859157.879         -67.852          45.000                                                                  
C10  36440796.181   189756788.630          44.396          41.000    36440790.988   146731959.504          34.419          42.000  
G07  22562235.990   118565349.8793      -3281.786          41.000    22562247.479                       -2557.943          21.000  
E15  22785654.088   119739421.198       -1512.117          45.000    22785654.361    91748384.001       -1158.652          46.000  
S28  36333472.095   190933683.6112       -204.927          36.000  
E18  19244276.225   101129352.028        3098.759          47.000    19244274.487    77488717.456        2374.126          47.000  
E27  22950760.399   120607058.404        1022.716          44.000    22950759.531    92413196.906         783.786          45.000  
G19  21603248.005   113525834.582        1259.235          40.000                                                                  
E30  23394498.809   122938920.340       -1289.519          44.000    23394499.323    94199954.670        -987.586          47.000  
C11                                                                  21349112.365    85964023.974        -634.209          46.000  
C16                                                                  37045529.261   149166991.020       -1384.692          38.000  
G06                                                                  21109928.328                        1292.945          30.000  
> 2025 11 08 14 13 54.9970000  0 35                     
S37  35537606.812   186751384.620        -205.367          42.000  
J07  35537611.222   186751404.911        -205.173          38.000    35537606.420   145520597.486        -160.581          44.000  
S29  35933773.305   188833252.406        -203.724          44.000  
G01  21716457.045   114120753.413       -3190.706          46.000    21716450.987    88925383.892       -2486.487          43.000  
G03  20465208.899   107545398.282        -221.353          46.000    20465205.579    83801608.322        -172.286          41.000  
G14  19061243.592   100167510.768         833.847          43.000    19061237.865    78052579.502         649.597          43.000  
C09  35756775.748   186194914.205       -1470.426          43.000    35756774.166   143977704.482       -1137.709          44.000  
C06  36580679.878   190485197.294       -1791.080          43.000    36580676.828   147295228.485       -1384.963          38.000  
C07  35604764.565   185403349.592          26.917          42.000    35604755.858   143365588.155          21.075          43.000  
C25  20726300.810   107927286.716        -634.090          48.000                                                                  
C24  22967150.993   119595981.195       -3168.951          45.000                                                                  
C34  21696663.751   112980224.315       -1415.106          47.000                                                                  
R12  21188767.494                        3493.604          30.000    21188761.150                        2722.600          29.000  
R11  18200617.852    97258584.054        -147.279          50.000    18200610.678    75645533.803        -114.083          45.000  
R21  20274015.146   108490349.813       -2536.876          52.000    20274006.470    84381347.839       -1973.434          41.000  
R22  19779300.169   105583249.234         219.963          47.000    19779296.836    82120298.380         169.612          40.000  
R10  20318467.169   108308863.623       -3750.977          43.000                                                                  
G17  21045391.187   110594275.472         348.439          45.000    21045384.537    86177339.767         271.539          39.000  
G22  20365318.376   107020469.446        1707.454          45.000                                                                  
G30  21492892.707   112945912.478       -2684.197          46.000    21492894.893    88009785.220       -2091.707          30.000  
J02  36895176.875   193885462.101         935.646          44.000    36895172.110   151079571.383         729.028          44.000  
J03  37986711.659   199621516.6053       -984.454          32.000    37986696.872   155549205.565        -766.351          35.000  
E13  23300790.701   122446481.520        1015.000          45.000    23300793.319    93822639.324         777.771          42.000  
C40  36076389.303   187859226.716         -69.780          45.000                                                                  
C10  36440787.844   189756745.563          41.496          40.000    36440782.796   146731926.172          32.901          41.000  
G07  22562860.911   118568632.1132      -3284.638          44.000    22562868.230    92391173.1951      -2559.024          36.000  
E15  22785942.025   119740934.154       -1514.688          44.000    22785942.167    91749543.316       -1160.637          46.000  
S28  36333511.259   190933889.7252       -207.043          34.000  
E18  19243686.617   101126254.328        3096.348          47.000    19243684.971    77486343.934        2372.768          47.000  
E27  22950565.643   120606036.605        1020.039          44.000    22950564.851    92412413.974         781.317          44.000  
G19  21603008.507   113524575.602        1257.281          41.000                                                                  
E30  23394743.834   122940209.010       -1290.356          44.000    23394744.685    94200942.097        -988.847          47.000  
C11                                                                  21349270.123    85964659.135        -636.346          46.000  
C16                                                                  37045873.387   149168376.501       -1386.164          41.000  
G06                                                                  21109610.258                        1303.912          21.000  
> 2025 11 08 14 13 55.9970000  0 35                     
S37  35537645.544   186751588.271        -204.463          41.000  
J07  35537650.038   186751608.542        -203.927          37.000    35537645.212   145520756.162        -159.659          44.000  
S29  35933811.734   188833454.344        -202.309          43.000  
G01  21717064.299   114123944.920       -3191.936          44.000    21717058.266    88927870.792       -2486.973          43.000  
G03  20465250.916   107545619.400        -222.906          44.000    20465247.618    83801780.692        -173.699          42.000  
G14  19061084.574   100166675.572         834.776          44.000    19061079.040    78051928.705         650.468          44.000  
C09  35757057.873   186196382.936       -1468.753          41.000    35757056.206   143978840.140       -1135.642          41.000  
C06  36581023.378   190486985.809       -1788.722          42.000    36581020.269   147296611.541       -1383.607          42.000  
C07  35604759.118   185403322.228          27.627          42.000    35604750.611   143365566.986          21.373          43.000  
C25  20726422.653   107927921.047        -634.282          47.000                                                                  
C24  22967759.093   119599147.997       -3167.884          45.000                                                                  
C34  21696935.596   112981639.505       -1415.253          47.000                                                                  
R12  21188110.012   113183080.2913       3499.254          34.000    21188104.175    88031260.0153       2724.109          28.000  
R11  18200645.069    97258729.446        -146.094          49.000    18200637.913    75645646.940        -113.781          45.000  
R21  20274489.458   108492887.260       -2537.234          51.000    20274480.717    84383321.456       -1973.981          41.000  
R22  19779258.925   105583028.397         220.956          48.000    19779255.540    82120126.591         171.693          40.000  
R10  20319170.526   108312612.525       -3750.433          42.000                                                                  
G17  21045324.933   110593927.126         349.380          45.000    21045318.309    86177068.309         271.646          39.000  
G22  20364993.457   107018761.628        1708.450          46.000                                                                  
G30  21493403.059   112948594.575       -2682.213          45.000    21493405.235    88011875.126       -2090.543          36.000  
J02  36894998.595   193884525.419         935.525          44.000    36894993.924   151078841.523         729.246          45.000  
J03  37986887.669   199622499.6602       -983.130          35.000    37986883.730   155549971.589        -765.900          37.000  
E13  23300597.370   122445465.008        1016.445          43.000    23300600.063    93821860.518         777.986          43.000  
C40  36076402.648   187859296.513         -69.464          46.000                                                                  
C10  36440779.873   189756703.323          42.995          41.000    36440774.740   146731893.559          32.740          41.000  
G07  22563486.078   118571913.724       -3282.276          40.000    22563489.793    92393730.231       -2558.838          37.000  
E15  22786230.144   119742448.340       -1514.403          44.000    22786230.362    91750703.510       -1160.437          46.000  
S28  36333550.655                        -207.701          34.000  
E18  19243097.366   101123157.917        3096.028          47.000    19243095.632    77483971.349        2372.508          47.000  
E27  22950371.340   120605015.946        1020.312          44.000    22950370.633    92411631.921         781.961          44.000  
G19  21602769.009   113523317.301        1259.908          41.000                                                                  
E30  23394989.387   122941498.412       -1291.216          44.000    23394990.250    94201930.064        -989.360          48.000  
C11                                                                  21349427.978    85965295.078        -635.735          46.000  
C16                                                                  37046217.505   149169761.749       -1386.264          40.000  
G06                                                                  21109292.107                        1305.230          22.000  
> 2025 11 08 14 13 56.9970000  0 35                     
S37  35537684.372   186751792.311        -207.999          40.000  
J07  35537688.785   186751812.559        -206.954          37.000    35537684.089   145520915.125        -161.200          44.000  
S29  35933850.038   188833655.646        -202.916          43.000  
G01  21717671.617   114127136.383       -3193.077          44.000    21717665.528    88930357.684       -2488.079          42.000  
G03  20465293.265   107545841.689        -225.389          45.000    20465290.037    83801953.944        -175.371          42.000  
G14  19060925.655   100165840.389         832.754          42.000    19060920.163    78051277.869         649.768          44.000  
C09  35757339.901   186197851.166       -1469.151          41.000    35757338.166   143979975.529       -1135.908          40.000  
C06  36581366.820   190488774.266       -1789.548          42.000    36581363.708   147297994.460       -1384.565          36.000  
C07  35604753.523   185403294.027          26.393          41.000    35604745.139   143365545.155          21.232          43.000  
C25  20726544.286   107928555.144        -635.729          46.000                                                                  
C24  22968367.371   119602315.506       -3169.659          45.000                                                                  
C34  21697207.390   112983054.222       -1416.295          47.000                                                                  
R12  21187452.243   113179566.2662       3498.716          32.000    21187446.331    88028526.7852       2726.276          28.000  
R11  18200672.403    97258875.261        -147.417          49.000    18200665.222    75645760.376        -115.246          45.000  
R21  20274963.475   108495424.055       -2538.226          50.000    20274954.671    84385294.455       -1974.285          41.000  
R22  19779217.312   105582806.553         221.487          48.000    19779213.868    82119954.012         170.684          39.000  
R10  20319873.999   108316362.433       -3753.031          43.000                                                                  
G17  21045258.461   110593577.566         348.479          45.000    21045251.674    86176795.902         272.726          37.000  
G22  20364668.492   107017053.199        1707.732          44.000                                                                  
G30  21493913.469   112951276.430       -2682.803          44.000    21493915.607    88013965.015       -2092.378          36.000  
J02  36894820.397   193883589.101         933.420          45.000    36894815.767   151078111.941         727.250          45.000  
J03  37987072.590   199623482.8042       -985.779          39.000    37987070.178   155550737.683        -768.243          41.000  
E13  23300403.594   122444448.083        1015.306          42.000    23300406.698    93821081.372         777.284          41.000  
C40  36076415.747   187859365.602         -70.600          46.000                                                                  
C10  36440771.579   189756659.878          42.221          40.000    36440766.412   146731859.936          32.959          40.000  
G07  22564110.260   118575195.491       -3283.397          44.000    22564113.721    92396287.399       -2558.680          39.000  
E15  22786518.370   119743962.388       -1515.794          44.000    22786518.526    91751863.611       -1161.444          46.000  
S28  36333589.665   190934302.2543       -206.527          35.000  
E18  19242508.260   101120061.043        3095.566          48.000    19242506.229    77481598.455        2372.041          46.000  
E27  22950177.010   120603994.864        1018.267          43.000    22950176.280    92410849.499         780.596          44.000  
G19  21602529.304   113522057.515        1259.264          37.000                                                                  
E30  23395235.176   122942788.730       -1293.973          44.000    23395235.580    94202918.739        -990.798          47.000  
C11                                                                  21349585.731    85965930.353        -636.215          45.000  
C16                                                                  37046561.525   149171146.965       -1386.115          39.000  
G06                                                                  21108976.070                        1300.433          23.000  
> 2025 11 08 14 13 57.9970000  0 35                     
S37  35537723.244   186751996.122        -205.922          42.000  
J07  35537727.591   186752016.459        -206.525          39.000    35537722.966   145521073.997        -160.609          44.000  
S29  35933888.297   188833856.912        -202.259          43.000  
G01  21718278.967   114130328.184       -3193.481          45.000    21718272.884    88932844.833       -2488.297          41.000  
G03  20465335.720   107546064.766        -226.038          46.000    20465332.491    83802127.752        -176.079          41.000  
G14  19060766.853   100165005.943         833.015          43.000    19060761.308    78050627.725         648.674          43.000  
C09  35757621.729   186199319.617       -1470.049          40.000    35757620.161   143981110.983       -1136.461          42.000  
C06  36581710.251   190490562.667       -1790.037          41.000    36581707.128   147299377.324       -1384.978          40.000  
C07  35604748.286   185403266.058          26.329          42.000    35604739.757   143365523.550          20.353          42.000  
C25  20726666.102   107929189.809        -635.711          48.000                                                                  
C24  22968975.705   119605483.072       -3169.910          44.000                                                                  
C34  21697479.080   112984469.290       -1416.878          47.000                                                                  
R12  21186800.554                        3491.227          25.000                                                                  
R11  18200699.987    97259022.118        -149.011          50.000    18200692.751    75645874.592        -115.235          44.000  
R21  20275437.554   108497961.166       -2538.402          50.000    20275428.884    84387267.821       -1974.133          43.000  
R22  19779175.747   105582585.295         220.742          50.000    19779172.357    82119781.928         171.060          38.000  
R10  20320577.513   108320112.682       -3753.353          42.000                                                                  
G17  21045191.961   110593228.345         348.810          46.000    21045185.222    86176523.782         271.184          38.000  
G22  20364343.533   107015345.389        1706.409          44.000                                                                  
G30  21494423.860   112953958.340       -2683.348          46.000    21494425.964    88016054.762       -2090.632          36.000  
J02  36894642.242   193882652.832         933.591          44.000    36894637.604   151077382.384         727.359          45.000  
J03  37987259.283   199624466.1482       -985.449          44.000    37987256.547   155551503.931        -768.335          43.000  
E13  23300210.657   122443431.619        1014.952          42.000    23300213.085    93820302.392         777.802          43.000  
C40  36076429.106   187859434.874         -70.639          46.000                                                                  
C10  36440763.219   189756616.689          42.165          40.000    36440758.143   146731826.572          33.239          40.000  
G06  21108651.917                        1663.992          26.000    21108657.457                        1304.497          23.000  
G07  22564734.660   118578477.038       -3282.387          46.000    22564739.409    92398844.525       -2557.493          37.000  
E15  22786806.446   119745476.991       -1516.582          45.000    22786806.602    91753024.171       -1162.272          46.000  
S28  36333628.685   190934507.7132       -207.901          33.000  
E18  19241919.153   101116964.718        3094.907          48.000    19241917.058    77479225.976        2371.047          47.000  
E27  22949982.691   120602974.300        1018.520          43.000    22949981.917    92410067.528         780.567          44.000  
G19  21602289.806   113520798.176        1259.738          35.000                                                                  
E30  23395480.777   122944079.328       -1293.585          43.000    23395481.213    94203907.670        -991.421          48.000  
C11                                                                  21349743.531    85966565.921        -635.829          45.000  
C16                                                                  37046905.548   149172532.126       -1386.814          38.000  
> 2025 11 08 14 13 58.9970000  0 35                     
S37  35537761.979   186752199.941        -204.602          41.000  
J07  35537766.358   186752220.226        -204.542          38.000    35537761.694   145521232.845        -160.377          43.000  
S29  35933926.631   188834058.320        -202.403          44.000  
G01  21718886.235   114133519.248       -3191.541          45.000    21718880.083    88935331.321       -2486.702          39.000  
G03  20465378.133   107546287.895        -223.937          45.000    20465374.947    83802301.591        -174.648          41.000  
G14  19060608.076   100164171.598         833.195          43.000    19060602.405    78049977.561         648.733          42.000  
C09  35757903.681   186200788.285       -1469.915          42.000    35757902.197   143982246.654       -1135.949          42.000  
C06  36582053.730   190492351.321       -1789.628          40.000    36582050.661   147300760.467       -1383.763          37.000  
C07  35604742.807   185403237.443          28.046          41.000    35604734.242   143365501.392          21.843          44.000  
C25  20726788.162   107929824.987        -636.337          48.000                                                                  
C24  22969584.028   119608650.904       -3168.555          45.000                                                                  
C34  21697750.706   112985883.623       -1415.256          47.000                                                                  
R12  21186158.861                        3497.456          26.000    21186137.764                        2718.318          22.000  
R11  18200727.677    97259169.608        -148.487          49.000    18200720.414    75645989.315        -115.465          45.000  
R21  20275911.501   108500497.587       -2536.746          51.000    20275902.707    84389240.529       -1973.038          44.000  
R22  19779134.390   105582364.330         220.619          47.000    19779130.878    82119600.1443        170.198          37.000  
R10  20321281.201   108323863.454       -3752.140          43.000                                                                  
G17  21045125.439   110592878.508         349.628          44.000    21045118.628    86176251.174         272.573          38.000  
G22  20364018.496   107013637.367        1706.495          43.000                                                                  
G30  21494934.285   112956640.837       -2683.278          43.000    21494936.479    88018145.078       -2090.565          38.000  
J02  36894463.986   193881716.103         935.218          44.000    36894459.331   151076652.436         729.090          45.000  
J03  37987447.020   199625448.8882       -983.575          46.000    37987443.297   155552269.701        -766.736          45.000  
E13  23300016.903   122442415.568        1014.670          43.000    23300019.669    93819523.823         777.804          38.000  
C40  36076442.242   187859503.377         -69.121          46.000                                                                  
C10  36440754.939   189756572.985          43.322          40.000    36440749.771   146731792.742          32.509          40.000  
G06  21108335.866   110925053.2763       1664.388          31.000    21108340.946    86435127.3111       1298.998          25.000  
G07  22565359.634   118581759.013       -3284.517          37.000    22565363.480    92401401.936       -2557.352          36.000  
E15  22787094.583   119746991.253       -1515.417          45.000    22787094.838    91754184.487       -1161.495          45.000  
S28  36333668.263   190934715.2523       -207.293          32.000  
E18  19241329.702   101113868.019        3095.591          47.000    19241327.689    77476853.112        2372.114          46.000  
E27  22949788.541   120601953.413        1019.749          44.000    22949787.586    92409285.328         780.950          44.000  
G19  21602052.451   113519551.5733       1259.211          32.000                                                                  
E30  23395726.044   122945369.929       -1291.761          43.000    23395726.918    94204896.549        -990.063          47.000  
C11                                                                  21349901.266    85967201.236        -636.011          45.000  
C16                                                                  37047249.535   149173917.477       -1385.882          38.000  
> 2025 11 08 14 13 59.9970000  0 35                     
S37  35537800.643   186752403.428        -203.969          41.000  
J07  35537805.101   186752423.745        -204.539          38.000    35537800.273   145521391.423        -159.613          44.000  
S29  35933964.919   188834259.527        -202.045          44.000  
G01  21719493.531   114136710.533       -3191.344          46.000    21719487.316    88937818.046       -2486.883          40.000  
G03  20465420.809   107546511.524        -224.749          46.000    20465417.438    83802475.874        -175.076          43.000  
G14  19060449.377   100163337.705         832.374          43.000    19060443.614    78049327.787         648.650          43.000  
C09  35758185.682   186202256.838       -1469.738          40.000    35758184.260   143983382.239       -1135.737          41.000  
C06  36582397.144   190494139.728       -1789.430          41.000    36582394.099   147302143.311       -1383.779          34.000  
C07  35604737.074   185403208.772          27.910          41.000    35604728.784   143365479.291          22.091          42.000  
C25  20726910.363   107930460.537        -636.534          47.000                                                                  
C24  22970192.248   119611818.580       -3168.042          44.000                                                                  
C34  21698022.293   112987298.029       -1414.755          47.000                                                                  
R12  21185515.224                        3502.054          27.000    21185487.139                        2726.894          22.000  
R11  18200755.478    97259317.868        -149.076          49.000    18200748.126    75646104.633        -117.191          44.000  
R21  20276385.551   108503034.154       -2536.807          52.000    20276376.730    84391213.455       -1973.284          43.000  
R22  19779093.081   105582143.856         219.245          42.000    19779089.622    82119428.5812        170.857          34.000  
R10  20321984.915   108327614.351       -3751.995          43.000                                                                  
G17  21045058.821   110592528.883         348.488          40.000    21045052.153    86175978.760         271.155          33.000  
G22  20363693.472   107011929.679        1707.067          44.000                                                                  
G30  21495444.717   112959323.197       -2682.896          44.000    21495446.850    88020235.184       -2091.418          35.000  
J02  36894285.761   193880779.220         935.895          43.000    36894281.007   151075922.397         729.143          45.000  
J03  37987633.270   199626431.5622       -983.313          43.000    37987629.920   155553035.434        -766.498          45.000  
E13  23299823.745   122441399.681        1014.409          40.000    23299826.527    93818745.516         777.676          39.000  
C40  36076455.317   187859571.868         -68.991          46.000                                                                  
C10  36440746.446   189756529.176          43.532          40.000    36440741.364   146731758.877          33.376          40.000  
G06  21108020.296   110923395.2393       1665.651          30.000    21108023.018                        1295.175          24.000  
G07  22565985.030   118585040.420       -3282.060          38.000    22565986.643    92403958.910       -2557.779          37.000  
E15  22787382.555   119748505.818       -1516.038          44.000    22787383.016    91755344.955       -1161.869          45.000  
S28  36333708.245                        -203.320          31.000  
E18  19240740.070   101110771.556        3095.454          47.000    19240738.436    77474480.551        2371.503          45.000  
E27  22949594.359   120600932.837        1019.394          43.000    22949593.693    92408503.277         781.313          45.000  
G19  21601811.290                        1258.450          27.000                                                                  
E30  23395971.628   122946660.611       -1291.171          43.000    23395972.507    94205885.539        -989.957          47.000  
C11                                                                  21350058.992    85967836.599        -636.147          46.000  
C16                                                                  37047593.552   149175302.675       -1385.852          41.000  
> 2025 11 08 14 14 00.9970000  0 35                     
S37  35537839.414   186752607.089        -204.624          40.000  
J07  35537843.828   186752627.406        -205.067          34.000    35537838.924   145521550.062        -159.335          44.000  
S29  35934003.198   188834460.829        -202.487          44.000  
G01  21720100.940   114139902.166       -3191.416          44.000    21720094.546    88940305.063       -2486.819          40.000  
G03  20465463.537   107546736.009        -225.126          46.000    20465460.179    83802650.870        -175.576          41.000  
G14  19060290.825   100162504.612         832.019          43.000    19060285.047    78048678.607         648.546          43.000  
C09  35758467.723   186203725.648       -1469.733          39.000    35758466.361   143984518.027       -1136.590          43.000  
C06  36582740.530   190495928.267       -1789.205          40.000    36582737.429   147303526.415       -1384.211          38.000  
C07  35604731.614   185403180.447          27.369          41.000    35604723.354   143365457.311          21.768          44.000  
C25  20727032.617   107931096.765        -637.250          46.000                                                                  
C24  22970800.619   119614986.447       -3168.677          44.000                                                                  
C34  21698294.126   112988712.782       -1414.646          46.000                                                                  
R12  21184861.479   113165727.3973       3501.569          27.000    21184834.149                        2733.813          22.000  
R11  18200783.433    97259467.233        -150.526          50.000    18200776.083    75646220.813        -117.602          44.000  
R21  20276859.681   108505571.135       -2537.023          49.000    20276850.792    84393186.651       -1972.945          40.000  
R22  19779051.992   105581924.033         218.162          40.000    19779048.509    82119258.1333        169.547          34.000  
R10  20322688.615   108331365.695       -3752.360          40.000                                                                  
G17  21044992.376   110592179.583         349.096          36.000    21044985.701    86175706.557         271.553          33.000  
G22  20363368.600   107010222.579        1706.394          45.000                                                                  
G30  21495955.144   112962005.780       -2683.562          44.000    21495957.434    88022325.572       -2091.434          36.000  
J02  36894107.424   193879842.509         936.460          44.000    36894102.644   151075192.497         729.419          44.000  
J03  37987820.795   199627414.324        -982.947          44.000    37987816.718   155553801.238        -766.022          42.000  
E13  23299630.770   122440384.259        1014.640          39.000    23299633.119    93817967.509         777.145          38.000  
C40  36076468.400   187859640.560         -68.709          46.000                                                                  
C10  36440738.056   189756485.592          43.954          39.000    36440732.973   146731725.146          34.220          39.000  
G07  22566609.855   118588321.702       -3282.726          41.000    22566612.304    92406515.741       -2558.096          39.000  
E15  22787670.980   119750020.889       -1515.386          45.000    22787671.306    91756505.868       -1161.248          46.000  
S28  36333745.962                        -204.061          30.000  
E18  19240151.003   101107675.654        3095.752          46.000    19240149.291    77472108.322        2372.055          47.000  
E27  22949400.143   120599912.731        1019.455          44.000    22949399.536    92407721.660         781.400          44.000  
G19  21601570.090                        1258.577          27.000                                                                  
E30  23396217.198   122947951.750       -1291.844          43.000    23396218.232    94206874.832        -989.886          47.000  
C11                                                                  21350216.848    85968472.272        -636.224          44.000  
C16                                                                  37047937.604   149176687.867       -1387.100          40.000  
G06                                                                  21107705.389                        1298.866          21.000  
> 2025 11 08 14 14 01.9970000  0 35                     
S37  35537877.926   186752810.112        -203.812          38.000  
J07  35537882.487   186752830.372        -203.198          35.000    35537877.555   145521708.264        -159.325          46.000  
S29  35934041.503   188834661.965        -202.050          44.000  
G01  21720708.304   114143093.889       -3190.972          43.000    21720701.924    88942792.142       -2486.478          43.000  
G03  20465506.163   107546960.659        -225.817          43.000    20465502.884    83802825.830        -176.357          42.000  
G14  19060132.386   100161671.982         832.200          44.000    19060126.697    78048029.814         648.331          46.000  
C09  35758749.787   186205194.357       -1469.432          40.000    35758748.408   143985653.705       -1136.308          46.000  
C06  36583083.739   190497716.291       -1789.123          39.000    36583080.766   147304909.030       -1384.056          44.000  
C07  35604726.234   185403152.066          28.915          43.000    35604717.990   143365435.400          22.218          47.000  
C25  20727154.731   107931733.445        -636.700          44.000                                                                  
C24  22971408.929   119618153.613       -3167.877          44.000                                                                  
C34  21698565.816   112990127.632       -1414.702          47.000                                                                  
R12  21184201.817                        3501.909          27.000    21184179.796                        2724.102          20.000  
R11  18200811.488    97259617.312        -151.129          50.000    18200804.243    75646337.547        -117.586          47.000  
R21  20277333.756   108508108.385       -2536.689          48.000    20277324.847    84395160.089       -1972.587          40.000  
R22  19779013.864   105581718.7203        219.742          37.000    19779008.528    82119092.6562        170.297          35.000  
R10  20323392.274   108335116.771       -3752.537          44.000                                                                  
G17  21044926.014   110591830.469         352.172          34.000    21044919.053    86175424.6871        272.257          32.000  
G22  20363043.796   107008515.964        1706.845          46.000                                                                  
G30  21496465.649   112964688.162       -2683.664          45.000    21496467.863    88024415.661       -2091.113          36.000  
J02  36893929.034   193878905.317         936.792          44.000    36893924.323   151074462.245         729.520          46.000  
J03  37988007.760   199628396.894        -982.745          44.000    37988003.365   155554566.823        -765.710          46.000  
E13  23299437.365   122439369.089        1015.158          39.000    23299439.901    93817189.613         777.894          40.000  
C40  36076481.699   187859709.259         -67.922          46.000                                                                  
C10  36440729.595   189756442.273          44.016          36.000    36440724.679   146731691.639          35.922          39.000  
G07  22567233.578   118591602.338       -3281.741          48.000    22567236.525    92409072.039       -2558.319          40.000  
E15  22787959.386   119751536.227       -1515.164          44.000    22787959.734    91757666.973       -1160.868          47.000  
S28  36333785.341   190935330.2343       -206.093          33.000  
E18  19239561.946   101104580.071        3096.352          47.000    19239560.249    77469736.356        2372.676          48.000  
E27  22949206.135   120598892.972        1020.429          44.000    22949205.434    92406940.314         781.491          45.000  
G19  21601330.325                        1260.761          27.000                                                                  
E30  23396462.601   122949242.513       -1291.194          43.000    23396463.804    94207863.857        -989.343          48.000  
C11                                                                  21350374.734    85969108.181        -634.847          47.000  
C16                                                                  37048281.555   149178072.675       -1386.148          44.000  
G06                                                                  21107388.641                        1299.832          20.000  
> 2025 11 08 14 14 02.9970000  0 34                     
S37  35537916.767   186753013.529        -202.512          42.000  
J07  35537921.136   186753033.830        -202.686          39.000    35537916.387   145521866.724        -157.617          45.000  
S29  35934079.851   188834863.154        -199.947          43.000  
G01  21721315.767   114146285.914       -3190.919          42.000    21721309.407    88945279.377       -2486.431          43.000  
G03  20465549.129   107547186.351        -225.049          48.000    20465545.890    83803001.720        -174.835          42.000  
G14  19059974.105   100160839.974         832.273          45.000    19059968.478    78047381.454         649.252          45.000  
C09  35759032.002   186206663.324       -1468.164          41.000    35759030.520   143986789.557       -1135.663          45.000  
C06  36583427.139   190499504.797       -1787.975          41.000    36583424.229   147306291.886       -1382.001          41.000  
C07  35604720.626   185403123.614          30.126          44.000    35604712.497   143365413.367          23.320          45.000  
C25  20727277.130   107932370.834        -636.633          40.000                                                                  
C24  22972017.097   119621321.588       -3168.158          46.000                                                                  
C34  21698837.472   112991542.537       -1413.389          48.000                                                                  
R12  21183543.118                        3489.182          31.000    21183531.671                        2709.664          22.000  
R11  18200839.697    97259768.416        -149.965          48.000    18200832.436    75646455.045        -116.214          45.000  
R21  20277807.999   108510645.724       -2535.513          45.000    20277799.089    84397133.603       -1972.959          38.000  
R22  19778975.863   105581516.0362        215.468          38.000    19778971.146                         172.901          30.000  
R10  20324096.122   108338868.838       -3751.534          42.000                                                                  
G17  21044859.638   110591481.360         351.410          34.000    21044853.068    86175154.5851        273.105          27.000  
G22  20362719.051   107006809.547        1708.201          45.000                                                                  
G30  21496976.196   112967370.946       -2682.507          41.000    21496978.415    88026506.130       -2090.091          38.000  
J02  36893750.753   193877968.457         938.251          43.000    36893746.162   151073732.209         731.494          45.000  
J03  37988194.693   199629379.616        -981.403          45.000    37988190.259   155555332.600        -764.868          44.000  
E13  23299244.362   122438354.344        1015.410          39.000    23299246.824    93816412.067         778.262          37.000  
C40  36076494.695   187859777.834         -66.587          47.000                                                                  
C10  36440721.288   189756398.756          43.931          34.000    36440716.407   146731658.050          33.983          38.000  
G07  22567857.789   118594883.273       -3279.673          40.000    22567860.837    92411628.642       -2556.348          38.000  
E15  22788248.018   119753051.965       -1514.475          46.000    22788248.073    91758828.325       -1160.353          46.000  
E18  19238973.186   101101484.725        3096.603          48.000    19238971.289    77467364.577        2372.934          48.000  
E27  22949012.158   120597873.509        1020.473          44.000    22949011.490    92406159.120         782.487          46.000  
G19  21601090.984                        1230.450          28.000                                                                  
E30  23396708.693   122950534.188       -1290.621          44.000    23396709.430    94208853.517        -988.682          47.000  
C11                                                                  21350532.688    85969744.179        -634.534          44.000  
C16                                                                  37048625.516   149179457.751       -1384.964          42.000  
G06                                                                  21107071.489                        1297.118          19.000  
> 2025 11 08 14 14 03.9970000  0 34                     
S37  35537955.441   186753216.699        -201.338          40.000  
J07  35537959.776   186753236.987        -200.914          37.000    35537955.170   145522025.054        -156.628          45.000  
S29  35934118.121   188835063.958        -198.964          45.000  
G01  21721923.120   114149477.576       -3191.858          45.000    21721916.864    88947766.411       -2487.147          43.000  
G03  20465592.058   107547412.533        -225.023          44.000    20465589.030    83803177.989        -175.704          41.000  
G14  19059815.751   100160007.929         832.478          43.000    19059810.272    78046733.115         648.945          45.000  
C09  35759314.070   186208131.984       -1465.968          41.000    35759312.560   143987925.225       -1133.881          40.000  
C06  36583770.472   190501293.065       -1786.259          40.000    36583767.679   147307674.796       -1381.550          42.000  
C07  35604714.948   185403094.522          29.637          43.000    35604706.884   143365390.872          23.264          43.000  
C25  20727399.610   107933008.215        -636.091          39.000                                                                  
C24  22972625.487   119624489.611       -3165.863          45.000                                                                  
C34  21699109.119   112992956.923       -1414.118          49.000                                                                  
R12  21182885.632                        3505.438          30.000    21182876.612                        2718.126          22.000  
R11  18200868.087    97259919.948        -150.498          50.000    18200860.914    75646572.908        -117.150          45.000  
R21  20278282.016   108513182.455       -2535.047          38.000    20278273.157    84399106.670       -1972.755          36.000  
R22  19778935.980                         212.695          29.000                                                                  
R10  20324800.042   108342621.365       -3751.004          40.000                                                                  
G17  21044793.071   110591131.615         352.138          33.000    21044788.244    86174882.082         270.897          29.000  
G22  20362394.292   107005102.890        1707.634          43.000                                                                  
G30  21497486.625   112970053.593       -2680.627          45.000    21497489.019    88028596.539       -2088.888          36.000  
J02  36893572.483   193877031.385         937.998          45.000    36893567.977   151073001.977         731.765          44.000  
J03  37988381.488   199630361.939        -981.427          43.000    37988377.101   155556098.038        -764.801          45.000  
E13  23299051.163   122437339.466        1017.408          37.000    23299053.545    93815634.413         779.530          36.000  
C40  36076507.615   187859845.791         -67.151          46.000                                                                  
C10  36440712.547                          67.053          30.000    36440707.877   146731623.880          34.511          36.000  
G07  22568482.017   118598164.192       -3278.556          39.000    22568485.092    92414185.192       -2555.438          38.000  
E15  22788536.257   119754567.441       -1514.449          45.000    22788536.475    91759989.544       -1160.261          45.000  
E18  19238384.037   101098389.014        3096.417          48.000    19238382.187    77464992.527        2372.694          46.000  
E27  22948817.900   120596853.729        1020.327          44.000    22948817.382    92405377.694         782.145          46.000  
G19  21600851.495                        1263.220          26.000                                                                  
E30  23396954.687   122951825.980       -1290.676          43.000    23396955.314    94209843.330        -988.461          46.000  
C11                                                                  21350690.555    85970379.799        -635.159          42.000  
C16                                                                  37048969.617   149180842.669       -1383.775          41.000  
G06                                                                  21106756.435                        1297.791          21.000  
> 2025 11 08 14 14 04.9970000  0 35                     
S37  35537993.918   186753419.131        -199.127          41.000  
J07  35537998.371   186753439.410        -198.660          37.000    35537993.776   145522182.813        -155.176          44.000  
S29  35934156.253   188835264.374        -198.707          43.000  
G01  21722530.428   114152669.264       -3190.002          44.000    21722524.284    88950253.418       -2485.996          43.000  
G03  20465635.125   107547638.744        -224.172          45.000    20465632.119    83803354.226        -175.129          41.000  
G14  19059657.486   100159176.301         833.066          43.000    19059651.998    78046085.076         649.608          43.000  
C09  35759596.234   186209600.422       -1466.507          41.000    35759594.575   143989060.724       -1134.021          40.000  
C06  36584113.775   190503080.676       -1785.325          38.000    36584111.014   147309057.006       -1380.864          41.000  
C07  35604709.567   185403065.447          31.003          40.000    35604701.250   143365368.436          23.348          42.000  
C25  20727522.114   107933645.994        -636.200          34.000                                                                  
C24  22973233.629   119627656.863       -3165.100          44.000                                                                  
C34  21699380.813   112994371.392       -1412.758          47.000                                                                  
R11  18200896.533    97260072.087        -149.955          46.000    18200889.364    75646691.257        -117.125          43.000  
R21  20278756.223   108515719.531       -2535.567          40.000    20278747.369    84401079.859       -1971.719          32.000  
R22  19778895.412   105581085.9543        218.048          29.000    19778892.596                         165.820          30.000  
R10  20325503.898   108346373.167       -3750.177          39.000                                                                  
G17  21044726.565   110590782.061         351.336          29.000    21044721.133    86174614.6651        272.532          29.000  
G22  20362069.686   107003396.704        1707.067          38.000                                                                  
G30  21497997.005   112972735.916       -2680.739          44.000    21497999.509    88030686.633       -2089.688          35.000  
J02  36893394.040   193876093.654         940.207          42.000    36893389.676   151072271.344         733.054          45.000  
J03  37988568.355   199631343.870        -979.382          41.000    37988563.924   155556863.161        -762.915          44.000  
E13  23298857.482   122436324.790        1016.588          35.000    23298860.551    93814856.932         779.517          35.000  
C40  36076520.734   187859913.758         -66.087          45.000                                                                  
C10  36440703.799   189756306.9133         47.446          29.000    36440699.418   146731589.769          35.182          36.000  
G07  22569106.065   118601444.104       -3276.636          34.000    22569109.084    92416727.8961      -2553.900          32.000  
E15  22788824.685   119756083.150       -1514.001          43.000    22788825.227    91761150.933       -1159.720          45.000  
S28  36333900.629                        -202.344          32.000  
E18  19237794.833   101095293.666        3096.914          47.000    19237793.318    77462620.794        2372.884          46.000  
E27  22948623.847   120595834.198        1021.062          43.000    22948623.400    92404596.506         782.438          46.000  
G19  21600613.580   113511990.1293       1257.237          26.000                                                                  
E30  23397200.544   122953117.198       -1287.494          39.000    23397200.948    94210832.741        -987.650          48.000  
C11                                                                  21350848.521    85971015.618        -635.201          42.000  
C16                                                                  37049313.472   149182227.167       -1383.405          41.000  
R12                                                                  21182222.273                        2720.422          21.000  
G06                                                                  21106438.692                        1293.421          20.000  
> 2025 11 08 14 14 05.9970000  0 35                     
S37  35538032.367   186753620.777        -199.301          41.000  
J07  35538036.809   186753641.044        -199.241          36.000    35538032.132   145522339.883        -154.160          41.000  
S29  35934194.300   188835464.269        -197.169          43.000  
G01  21723137.624   114155860.296       -3189.863          45.000    21723131.539    88952739.967       -2485.996          43.000  
G03  20465678.115   107547864.608        -224.769          45.000    20465675.153    83803530.281        -174.948          42.000  
G14  19059499.257   100158344.552         833.185          44.000    19059493.763    78045436.929         650.449          44.000  
C09  35759878.042   186211068.476       -1466.113          40.000    35759876.520   143990195.928       -1133.732          39.000  
C06  36584456.967   190504867.755       -1784.914          40.000    36584454.284   147310438.839       -1379.735          40.000  
C07  35604703.701   185403035.732          31.938          43.000    35604695.546   143365345.420          24.779          42.000  
C25  20727644.572   107934283.583        -635.284          34.000                                                                  
C24  22973841.907   119630823.491       -3164.905          46.000                                                                  
C34  21699652.253   112995785.199       -1411.923          48.000                                                                  
R12  21181566.278                        3503.371          31.000    21181568.611                        2727.974          29.000  
R11  18200925.126    97260224.507        -149.787          49.000    18200917.942    75646809.755        -116.610          42.000  
R21  20279230.249   108518255.964       -2535.265          39.000    20279221.459    84403052.665       -1972.236          33.000  
R22  19778859.353   105580893.7172        222.312          32.000                                                                  
R10  20326207.631   108350124.758       -3750.452          43.000                                                                  
G17  21044659.857   110590431.780         355.054          31.000    21044654.138    86174341.853         273.158          30.000  
G22  20361744.929   107001690.193        1708.671          43.000                                                                  
G30  21498507.316   112975417.875       -2680.045          46.000    21498509.804    88032776.423       -2088.689          34.000  
J02  36893215.504   193875155.158         940.793          44.000    36893211.183   151071539.992         733.294          44.000  
J03  37988755.030   199632324.963        -978.979          43.000    37988750.483   155557627.705        -762.585          44.000  
E13  23298664.262   122435309.855        1017.705          36.000    23298667.465    93814079.336         779.501          36.000  
C40  36076533.554   187859980.962         -64.794          46.000                                                                  
C10  36440695.723   189756262.3222         45.646          32.000    36440690.830   146731555.199          38.160          36.000  
G07  22569730.064   118604723.368       -3277.369          41.000    22569733.280                       -2557.014          31.000  
E15  22789112.833   119757598.393       -1512.944          46.000    22789113.478    91762311.984       -1159.259          45.000  
S28  36333939.572   190936140.6573       -202.419          32.000  
E18  19237205.989   101092197.885        3097.947          48.000    19237204.177    77460248.681        2373.550          46.000  
E27  22948429.583   120594814.273        1021.955          46.000    22948429.414    92403815.006         783.224          47.000  
G19  21600373.861   113510730.1482       1259.996          27.000                                                                  
E30  23397446.135   122954407.882       -1289.051          45.000    23397447.041    94211821.793        -987.666          47.000  
C11                                                                  21351006.337    85971651.030        -633.417          41.000  
C16                                                                  37049657.145   149183611.155       -1382.748          40.000  
G06                                                                  21106120.606                        1301.258          20.000  
> 2025 11 08 14 14 06.9970000  0 35                     
S37  35538070.785   186753822.982        -199.879          41.000  
J07  35538075.289   186753843.283        -199.980          39.000    35538070.582   145522497.446        -155.756          43.000  
S29  35934232.485   188835664.781        -198.987          44.000  
G01  21723744.871   114159051.246       -3190.620          44.000    21723738.716    88955226.427       -2486.530          43.000  
G03  20465721.251   107548091.411        -225.236          42.000    20465718.285    83803707.037        -175.673          42.000  
G14  19059341.040   100157513.431         832.792          46.000    19059335.520    78044789.362         648.487          42.000  
C09  35760160.076   186212537.215       -1466.395          40.000    35760158.440   143991331.554       -1132.945          36.000  
C06  36584800.459   190506655.691       -1785.262          40.000    36584797.657   147311821.360       -1380.336          38.000  
C07  35604697.906   185403005.924          30.731          42.000    35604689.822   143365322.411          23.311          41.000  
C25  20727767.418                        -647.536          30.000                                                                  
C24  22974450.306   119633991.200       -3165.845          45.000                                                                  
C34  21699923.631   112997198.873       -1412.477          48.000                                                                  
R12  21180910.635   113144622.7643       3497.008          37.000    21180914.754                        2714.660          20.000  
R11  18200953.936    97260378.117        -151.678          48.000    18200946.686    75646929.216        -117.963          44.000  
R21  20279704.201   108520792.135       -2534.100          40.000    20279695.465    84405025.324       -1972.678          34.000  
R22  19778823.398   105580701.9913        216.762          40.000                                                                  
R10  20326911.715   108353877.596       -3750.592          42.000                                                                  
G17  21044594.182   110590088.2623        353.659          34.000    21044588.674    86174068.922         272.666          29.000  
G22  20361420.292   106999984.023        1707.924          42.000                                                                  
G30  21499017.825   112978100.815       -2680.797          44.000    21499020.379    88034866.923       -2088.534          32.000  
J02  36893036.930   193874216.920         940.051          43.000    36893032.590   151070808.919         732.486          43.000  
J03  37988941.742   199633306.210        -979.633          43.000    37988937.027   155558392.295        -763.117          43.000  
E13  23298471.346   122434295.881        1015.804          36.000    23298474.673    93813302.378         777.773          36.000  
C40  36076546.437   187860048.002         -66.407          45.000                                                                  
C10  36440686.374   189756217.7712         39.975          30.000    36440682.235   146731520.580          34.737          34.000  
G07  22570354.272   118608003.568       -3277.789          40.000    22570358.296    92421844.1271      -2554.542          28.000  
E15  22789401.383   119759114.006       -1514.516          45.000    22789401.822    91763473.320       -1160.209          44.000  
S28  36333978.681                        -206.055          31.000  
E18  19236616.904   101089102.256        3096.507          48.000    19236615.214    77457876.748        2372.246          46.000  
E27  22948236.055   120593794.653        1020.698          47.000    22948235.437    92403033.737         782.047          47.000  
G19  21600136.312   113509481.4723       1258.257          27.000                                                                  
E30  23397691.677   122955699.412       -1289.996          43.000    23397692.723    94212811.326        -988.021          46.000  
C11                                                                  21351164.187    85972286.558        -633.968          39.000  
C16                                                                  37050001.019   149184995.732       -1382.825          38.000  
G06                                                                  21105802.456                        1303.083          19.000  
> 2025 11 08 14 14 07.9970000  0 35                     
S37  35538109.325   186754025.428        -204.088          42.000  
J07  35538113.837   186754045.739        -204.459          39.000    35538109.110   145522655.216        -159.543          42.000  
S29  35934270.496   188835864.744        -201.771          41.000  
G01  21724352.113   114162242.091       -3193.107          45.000    21724345.919    88957712.785       -2488.898          43.000  
G03  20465764.592   107548319.469        -232.333          39.000    20465761.593    83803884.651        -179.668          42.000  
G14  19059182.921   100156682.400         828.765          44.000    19059177.392    78044141.836         645.244          44.000  
C09  35760442.080   186214005.497       -1469.302          40.000    35760440.343   143992467.026       -1136.381          39.000  
C06  36585143.709   190508443.463       -1790.101          30.000    36585140.950   147313203.799       -1382.442          40.000  
C07  35604692.142   185402975.370          27.330          39.000    35604683.977   143365298.754          21.660          40.000  
C25  20727894.137   107935583.5673       -641.032          29.000                                                                  
C24  22975058.654   119637159.394       -3169.244          42.000                                                                  
C34  21700194.955   112998612.114       -1416.405          47.000                                                                  
R12  21180253.314   113141123.8242       3495.137          31.000    21180260.981                        2717.903          22.000  
R11  18200982.764    97260532.207        -156.768          50.000    18200975.577    75647049.076        -122.904          45.000  
R21  20280178.005   108523327.996       -2540.638          36.000    20280169.280    84406997.190       -1976.069          31.000  
R22  19778781.140                         216.161          25.000    19778773.520    82118116.7853        167.675          27.000  
R10  20327615.864   108357631.280       -3755.614          39.000                                                                  
G17  21044528.216   110589742.1513        351.600          28.000    21044521.834    86173798.4461        272.418          30.000  
G22  20361095.531   106998277.414        1703.491          36.000                                                                  
G30  21499528.313   112980783.596       -2682.909          40.000    21499531.051    88036957.415       -2090.440          33.000  
J02  36892858.446   193873278.908         935.564          45.000    36892854.076   151070078.001         729.701          43.000  
J03  37989128.383   199634287.347        -983.087          44.000    37989123.638   155559156.848        -766.736          44.000  
E13  23298278.320   122433281.547        1011.736          35.000    23298281.726    93812525.187         775.387          34.000  
C40  36076559.274   187860114.322         -69.213          42.000                                                                  
C10  36440676.307                          51.585          26.000    36440673.516   146731485.441          30.509          30.000  
G07  22570978.506   118611283.873       -3280.669          37.000    22570983.868                       -2553.848          28.000  
E15  22789689.693   119760629.530       -1518.927          44.000    22789690.270    91764634.510       -1163.338          47.000  
S28  36334017.733                        -204.639          31.000  
E18  19236027.250   101086006.238        3093.281          44.000    19236025.905    77455504.513        2369.429          44.000  
E27  22948041.695   120592774.601        1017.070          47.000    22948041.209    92402252.148         779.398          45.000  
G19  21599895.552                        1257.161          26.000                                                                  
E30  23397937.682   122956991.813       -1293.999          45.000    23397938.403    94213801.575        -992.249          44.000  
C11                                                                  21351321.896    85972921.559        -638.037          38.000  
C16                                                                  37050344.947   149186380.421       -1385.536          37.000  
G06                                                                  21105487.009                        1306.378          19.000  
> 2025 11 08 14 14 08.9970000  0 35                     
S37  35538147.827   186754227.739        -203.682          43.000  
J07  35538152.358   186754248.020        -203.538          40.000    35538147.530   145522812.903        -158.914          43.000  
S29  35934308.433   188836064.491        -201.885          45.000  
G01  21724959.411   114165433.664       -3193.035          45.000    21724953.149    88960199.740       -2488.280          42.000  
G03  20465808.116   107548548.130        -230.251          46.000    20465805.039    83804062.844        -179.854          39.000  
G14  19059025.016   100155852.206         828.341          46.000    19059019.469    78043494.909         644.485          46.000  
C09  35760724.043   186215473.892       -1470.348          42.000    35760722.307   143993602.503       -1137.288          41.000  
C06  36585486.911   190510230.928       -1789.270          43.000    36585484.246   147314586.037       -1383.406          41.000  
C07  35604686.450   185402945.274          26.780          36.000    35604678.220   143365275.504          21.122          38.000  
C25  20728018.602   107936222.659        -640.299          30.000                                                                  
C24  22975667.006   119640327.306       -3168.152          46.000                                                                  
C34  21700466.540   113000025.970       -1416.035          45.000                                                                  
R12  21179594.704                        3505.323          26.000    21179605.909                        2718.540          25.000  
R11  18201011.833    97260687.274        -158.199          49.000    18201004.640    75647169.739        -123.390          43.000  
R21  20280652.086   108525864.632       -2541.292          30.000    20280643.427    84408969.8823      -1975.078          34.000  
R22  19778740.751                         217.017          29.000    19778739.415                         161.056          26.000  
R10  20328319.966   108361385.052       -3755.119          43.000                                                                  
G17  21044462.676                         347.042          29.000    21044456.713                         273.233          28.000  
G22  20360770.996   106996571.708        1703.518          34.000                                                                  
G30  21500038.770   112983466.148       -2684.274          44.000    21500041.571    88039047.754       -2090.710          38.000  
J02  36892679.894   193872340.978         936.466          43.000    36892675.529   151069347.180         729.645          43.000  
J03  37989315.225   199635268.812        -983.514          44.000    37989310.351   155559921.546        -765.881          44.000  
E13  23298085.556   122432267.545        1011.793          31.000    23298088.618    93811748.212         774.843          34.000  
C40  36076572.089   187860181.147         -68.306          40.000                                                                  
C10  36440668.552   189756123.3353         43.840          27.000    36440664.825   146731450.3952         32.299          30.000  
G07  22571602.627   118614563.691       -3280.549          40.000    22571604.243    92426945.7991      -2554.901          29.000  
E15  22789978.332   119762145.682       -1518.873          46.000    22789978.599    91765796.264       -1163.631          48.000  
S28  36334055.662                        -207.324          31.000  
E18  19235438.568   101082911.082        3092.501          43.000    19235436.887    77453132.870        2370.580          42.000  
E27  22947847.976   120591755.309        1017.009          46.000    22947847.330    92401471.146         779.224          44.000  
G19  21599652.960   113506941.7383       1257.979          31.000                                                                  
E30  23398183.335   122958284.231       -1293.710          42.000    23398184.170    94214791.942        -991.663          45.000  
C11                                                                  21351479.720    85973557.018        -635.220          38.000  
C16                                                                  37050688.793   149187764.679       -1385.378          40.000  
G06                                                                  21105169.476                        1309.390          18.000  
> 2025 11 08 14 14 09.9970000  0 35                     
S37  35538186.267   186754430.326        -203.184          41.000  
J07  35538190.896   186754450.590        -201.947          36.000    35538186.018   145522970.664        -158.042          42.000  
S29  35934346.644   188836265.090        -201.948          46.000  
G01  21725567.021   114168626.419       -3192.287          44.000    21725560.691    88962687.563       -2486.928          43.000  
G03  20465851.880   107548777.916        -230.220          47.000    20465848.675    83804241.905        -179.744          41.000  
G14  19058867.266   100155023.528         827.812          46.000    19058861.693    78042849.208         644.863          47.000  
C09  35761006.310   186216943.117       -1471.175          41.000    35761004.457   143994738.564       -1136.681          41.000  
C06  36585830.332   190512018.847       -1788.421          41.000    36585827.596   147315968.661       -1383.362          42.000  
C07  35604680.841   185402916.238          29.562          38.000    35604672.633   143365253.059          22.361          37.000  
C25  20728140.300   107936865.6173       -641.716          33.000                                                                  
C24  22976275.259   119643495.461       -3167.908          46.000                                                                  
C34  21700738.409   113001441.027       -1414.620          46.000                                                                  
R12  21178938.866   113134089.8433       3495.254          38.000    21178952.056                        2722.449          25.000  
R11  18201041.232    97260844.118        -158.396          49.000    18201033.972    75647291.679        -123.317          43.000  
R21  20281126.864                       -2538.430          36.000    20281118.949    84410949.8263      -1972.446          29.000  
R22  19778705.620                         220.320          29.000    19778703.166                         169.072          27.000  
R10  20329024.376   108365139.352       -3755.566          40.000                                                                  
G17  21044396.000                         346.964          30.000    21044389.300                         273.274          26.000  
G22  20360446.731   106994867.335        1705.583          35.000                                                                  
G30  21500549.440   112986149.489       -2684.498          44.000    21500552.161    88041138.722       -2092.115          38.000  
J02  36892501.463   193871403.506         937.466          43.000    36892497.147   151068616.704         729.560          44.000  
J03  37989502.211   199636250.958        -983.130          43.000    37989497.227   155560686.835        -765.320          45.000  
E13  23297892.509   122431254.682        1011.361          34.000    23297895.719    93810972.185         774.747          35.000  
C40  36076585.165   187860249.110         -67.208          41.000                                                                  
C10  36440663.170                          44.633          27.000    36440657.385                          35.620          29.000  
G07  22572226.877                       -3280.360          36.000    22572230.574    92429510.5331      -2555.236          30.000  
E15  22790267.043   119763663.138       -1517.601          47.000    22790267.384    91766959.008       -1163.232          48.000  
S28  36334095.211                        -203.027          31.000  
E18  19234849.871   101079817.334        3092.737          42.000    19234848.162    77450762.319        2370.154          42.000  
E27  22947654.242   120590737.390        1017.252          45.000    22947653.534    92400691.185         779.456          44.000  
G19  21599413.156   113505682.6182       1261.517          31.000                                                                  
E30  23398429.728   122959577.309       -1293.132          46.000    23398430.307    94215782.749        -991.088          46.000  
C11                                                                  21351638.067    85974193.883        -640.615          29.000  
C16                                                                  37051032.725   149189149.316       -1384.565          39.000  
G06                                                                  21104852.101                        1289.324          18.000  
> 2025 11 08 14 14 10.9970000  0 35                     
S37  35538224.648   186754631.715        -201.833          41.000  
J07  35538229.108   186754652.001        -201.642          37.000    35538224.400   145523127.690        -157.122          42.000  
S29  35934384.746   188836465.580        -202.036          43.000  
G01  21726174.255   114171817.862       -3191.201          44.000    21726168.028    88965174.411       -2486.796          44.000  
G03  20465895.335   107549006.644        -228.291          45.000    20465892.215    83804420.187        -178.546          42.000  
G14  19058709.563   100154194.830         827.315          45.000    19058704.108    78042203.431         644.387          45.000  
C09  35761288.395   186218412.259       -1470.994          42.000    35761286.608   143995874.687       -1137.675          42.000  
C06  36586173.695   190513806.571       -1788.665          44.000    36586170.817   147317350.871       -1383.754          34.000  
C07  35604675.180   185402886.821          27.817          38.000    35604666.961   143365230.252          22.030          38.000  
C25  20728260.406   107937507.2942       -643.251          28.000                                                                  
C24  22976883.583   119646662.766       -3167.230          46.000                                                                  
C34  21701010.039   113002855.118       -1414.519          48.000                                                                  
R12  21178283.293                        3483.797          26.000    21178297.918                        2717.725          31.000  
R11  18201070.677    97261001.446        -158.885          48.000    18201063.377    75647414.050        -124.019          44.000  
R21  20281598.603                       -2535.979          35.000    20281593.117                       -1972.839          33.000  
R22  19778664.055   105579851.1213        213.292          36.000    19778662.605    82117656.3083        166.610          27.000  
R10  20329728.463   108368893.032       -3755.117          43.000                                                                  
G17  21044331.573   110588708.2193        351.880          36.000    21044323.699                         272.266          26.000  
G22  20360121.563   106993159.9853       1702.462          35.000                                                                  
G30  21501060.032   112988832.714       -2684.746          45.000    21501062.759    88043229.490       -2091.477          34.000  
J02  36892322.778   193870464.780         938.628          41.000    36892318.413   151067885.184         731.179          43.000  
J03  37989688.900   199637231.841        -982.086          44.000    37989683.720   155561451.212        -764.813          45.000  
E13  23297699.902   122430242.188        1011.691          36.000    23297703.337    93810196.321         774.508          37.000  
C40  36076598.246   187860316.195         -68.047          42.000                                                                  
C10  36440654.186   189756048.6523         42.639          30.000    36440646.761                          34.599          28.000  
G07  22572850.875   118621131.0603      -3278.011          33.000    22572853.791                       -2552.347          29.000  
E15  22790555.587   119765180.145       -1517.607          45.000    22790556.165    91768121.362       -1163.186          48.000  
S28  36334134.676                        -206.130          30.000  
E18  19234260.972   101076723.079        3093.665          43.000    19234259.288    77448391.351        2370.295          44.000  
E27  22947460.495   120589719.226        1017.274          46.000    22947459.659    92399910.985         779.187          44.000  
G19  21599172.770   113504418.0483       1258.686          37.000                                                                  
E30  23398675.622   122960869.403       -1292.393          46.000    23398675.876    94216772.698        -990.411          44.000  
C11                                                                  21351796.088    85974829.900        -637.110          38.000  
C16                                                                  37051376.539   149190533.692       -1385.378          41.000  
G06                                                                  21104534.671                        1301.197          18.000  
> 2025 11 08 14 14 11.9970000  0 35                     
S37  35538262.847   186754832.135        -199.935          43.000  
J07  35538267.154   186754852.417        -200.154          40.000    35538262.483   145523283.755        -154.403          43.000  
S29  35934422.795   188836665.896        -198.648          45.000  
G01  21726781.571   114175009.433       -3190.249          43.000    21726775.245    88967661.402       -2486.625          41.000  
G03  20465938.744   107549235.027        -227.760          45.000    20465935.657    83804598.074        -176.619          41.000  
G14  19058551.975   100153366.812         829.489          46.000    19058546.419    78041558.199         646.023          45.000  
C09  35761570.330   186219881.436       -1469.147          40.000    35761568.751   143997010.625       -1134.556          42.000  
C06  36586516.806   190515593.462       -1785.244          43.000    36586513.973   147318732.632       -1381.716          40.000  
C07  35604669.547   185402857.774          29.683          43.000    35604661.362   143365207.794          23.368          43.000  
C25  20728381.880                        -641.486          29.000                                                                  
C24  22977491.548   119649828.546       -3164.941          45.000                                                                  
C34  21701281.541   113004269.664       -1413.673          50.000                                                                  
R12  21177632.222   113127109.7793       3508.461          29.000    21177643.212                        2718.390          26.000  
R11  18201100.235    97261159.619        -158.072          47.000    18201092.894    75647537.016        -122.203          42.000  
R21  20282073.885   108533473.7583      -2536.354          39.000    20282067.003    84414895.5733      -1972.302          32.000  
R22  19778621.714                         208.218          33.000    19778622.490                         166.409          26.000  
R10  20330432.372   108372645.437       -3751.819          43.000                                                                  
G22  20359796.626   106991456.6672       1703.722          41.000                                                                  
G30  21501570.583   112991515.510       -2681.510          42.000    21501573.282    88045319.997       -2089.201          36.000  
J02  36892143.991   193869525.203         939.954          43.000    36892139.630   151067153.011         733.381          42.000  
J03  37989875.458   199638212.352        -979.578          43.000    37989870.309   155562215.277        -763.037          43.000  
E13  23297507.269   122429230.099        1013.164          40.000    23297510.845    93809420.788         776.506          39.000  
C40  36076611.249   187860383.719         -66.618          48.000                                                                  
C10  36440642.861   189755989.4743         44.926          29.000    36440638.943   146731352.6033         34.849          36.000  
G07  22573475.216                       -3278.512          29.000    22573484.155                       -2549.523          27.000  
E15  22790844.321   119766697.551       -1516.065          46.000    22790845.010    91769284.069       -1162.333          46.000  
S28  36334173.387                        -196.631          30.000  
E18  19233672.660   101073629.639        3094.789          49.000    19233670.623    77446021.079        2371.227          46.000  
E27  22947267.103   120588701.792        1018.677          46.000    22947266.342    92399131.411         780.631          46.000  
G19  21598937.082   113503180.1273       1259.484          37.000                                                                  
E30  23398921.500   122962160.256       -1289.197          44.000    23398921.918    94217761.885        -988.596          45.000  
C11                                                                  21351954.288    85975466.838        -637.724          40.000  
C16                                                                  37051720.143   149191917.293       -1382.737          40.000  
G17                                                                  21044258.810                         273.652          27.000  
G06                                                                  21104217.050                        1303.452          17.000  
