     3.00           OBSERVATION DATA    M: Mixed            RINEX VERSION / TYPE
RTKCONV 2.4.2                           20250519 094059 UTC PGM / RUN BY / DATE 
log: C:\Users\jay\Desktop\coliseum_GNSS_Data\move\COM5___9  COMMENT             
format: u-blox                                              COMMENT             
                                                            MARKER NAME         
                                                            MARKER NUMBER       
                                                            MARKER TYPE         
                                                            OBSERVER / AGENCY   
                                                            REC # / TYPE / VERS 
                                                            ANT # / TYPE        
 -2418405.1838  5385906.5569  2405284.3606                  APPROX POSITION XYZ 
        0.0000        0.0000        0.0000                  ANTENNA: DELTA H/E/N
G    4 C1C L1C D1C S1C                                      SYS / # / OBS TYPES 
R    4 C1C L1C D1C S1C                                      SYS / # / OBS TYPES 
E    4 C1C L1C D1C S1C                                      SYS / # / OBS TYPES 
J    4 C1C L1C D1C S1C                                      SYS / # / OBS TYPES 
S    4 C1C L1C D1C S1C                                      SYS / # / OBS TYPES 
C    4 C1I L1I D1I S1I                                      SYS / # / OBS TYPES 
  2025     5    19     6     9   25.2010000     GPS         TIME OF FIRST OBS   
  2025     5    19     6    10   46.2010000     GPS         TIME OF LAST OBS    
                                                            END OF HEADER       
> 2025  5 19  6  9 25.2010000  0 57                     
G 5  22383291.447   117624981.0001       1584.169          43.000  
G 6  22630376.430   118923423.5411       -976.111          44.000  
G11  22081046.469   116036676.8631        103.136          44.000  
G12  22929184.445   120493705.490        -563.535          34.000  
G17  23661420.102   124341615.0441      -2960.943          41.000  
J 4  38013371.503   199761611.5671       -972.152          43.000  
C 7  35884120.186   186858033.3081       -420.602          44.000  
C 8  36836404.356   191816826.6271       -774.893          43.000  
C10  36123918.195   188106720.8711       -108.209          42.000  
C13  37239376.593   193915208.6361       -595.263          43.000  
C14  22202596.650   115614748.864         934.709          45.000  
C33  23707116.321   123449178.922        2231.868          45.000  
R 2  20268900.606   108158738.318       -1770.563          47.000  
R18  22926716.565   122384346.7791       2088.245          44.000  
R 1  23796552.246                       -4301.356          28.000  
R24  22413336.504   119854174.2761      -1356.185          44.000  
G20  21091230.342   110835160.055        -363.153          44.000  
G25  24529023.760                         748.547          32.000  
G19  21395150.274   112432271.952       -2344.058          45.000  
S37  36823553.425   193509082.884        -264.984          41.000  
S28  37641374.424   197806756.078        -263.539          43.000  
R 4  24054955.391   128813195.6711       4160.321          37.000  
R17  21006042.543   112407592.7421        929.144          46.000  
R 3  20354695.023   108960263.5741       2466.094          48.000  
E12                                                                
E19                                                                
E23                                                                
E29                                                                
J 2  36248495.858   190487124.8251       -397.137          44.000  
J 7  36823557.445   193509100.1511       -265.117          38.000  
J 3  39743117.912   208851486.167         380.734          43.000  
G13  24182779.655   127081365.276        3229.425          35.000  
E12                                                                
E19                                                                
E23                                                                
E26                                                                
E29                                                                
C 7  35884116.561   144490468.7691       -325.369          46.000  
C 8  36836401.529   148324910.1301       -599.019          45.000  
C10  36123917.701   145456043.9911        -83.527          44.000  
C13  37239382.922   149947556.0601       -460.358          42.000  
C14  22202596.584    89400656.336         722.984          46.000  
G 5  22383297.072    91655868.4761       1234.599          39.000  
G 6  22630381.190    92667618.7161       -760.401          44.000  
G11  22081047.618    90418195.8661         80.469          44.000  
G12  22929182.062                        -438.822          31.000  
G17  23661430.047    96889594.6601      -2307.145          40.000  
R 2  20268905.595    84123486.042       -1377.029          44.000  
R18  22926722.934    95187880.1521       1624.142          46.000  
G25  24529038.075   100442369.667         582.918          34.000  
J 2  36248505.534   148431579.8701       -309.351          43.000  
J 4  38013373.931   155658420.2221       -757.677          44.000  
J 7  36823561.486   150786329.1871       -206.394          43.000  
R24  22413343.258    93219926.4881      -1054.727          44.000  
R17  21006045.503    87428116.8311        722.833          46.000  
R 3  20354701.630    84746897.4041       1918.239          46.000  
R 4  24054972.932   100188135.0601       3235.633          43.000  
> 2025  5 19  6  9 25.3010000  0 57                     
G 5  22383261.259   117624822.5581       1584.386          43.000  
G 6  22630395.006   118923521.1261       -975.838          44.000  
G11  22081044.495   116036666.5411        103.189          45.000  
G12  22929195.145   120493761.860        -563.577          34.000  
G17  23661476.441   124341911.1581      -2961.299          41.000  
J 4  38013389.987   199761708.7871       -972.259          43.000  
C 7  35884128.261   186858075.3831       -420.784          44.000  
C 8  36836419.231   191816904.0981       -774.639          43.000  
C10  36123920.316   188106731.6501       -107.776          42.000  
C13  37239388.030   193915268.1561       -595.205          43.000  
C14  22202578.679   115614655.379         934.799          45.000  
C33  23707073.447   123448955.725        2231.908          45.000  
R 2  20268933.763   108158915.366       -1770.523          47.000  
R18  22926677.453   122384137.9371       2088.358          44.000  
R 1  23796632.241                       -4301.448          28.000  
R24  22413361.855   119854309.9041      -1356.400          44.000  
G20  21091237.221   110835196.350        -363.000          44.000  
G25  24529009.474                         748.085          32.000  
G19  21395194.843   112432506.378       -2344.347          45.000  
S37  36823558.468   193509109.379        -264.923          41.000  
S28  37641379.443   197806782.387        -262.967          43.000  
R 4  24054877.750   128812779.6911       4159.796          37.000  
R17  21006025.135   112407499.7911        929.572          46.000  
R 3  20354648.939   108960016.9581       2466.085          48.000  
E12                                                                
E19                                                                
E23                                                                
E29                                                                
J 2  36248503.437   190487164.5471       -397.296          44.000  
J 7  36823562.495   193509126.6781       -265.463          38.000  
J 3  39743110.689   208851448.091         380.696          43.000  
G13  24182718.217   127081042.315        3229.608          35.000  
E12                                                                
E19                                                                
E23                                                                
E26                                                                
E29                                                                
C 7  35884124.674   144490501.3051       -325.416          46.000  
C 8  36836416.411   148324970.0371       -599.159          45.000  
C10  36123919.786   145456052.3471        -83.588          44.000  
C13  37239394.355   149947602.0851       -460.268          42.000  
C14  22202578.629    89400584.053         722.847          46.000  
G 5  22383266.900    91655745.0171       1234.661          39.000  
G 6  22630399.746    92667694.7791       -760.659          44.000  
G11  22081045.687    90418187.8241         80.336          44.000  
G12  22929192.824                        -439.045          31.000  
G17  23661486.402    96889825.3801      -2307.146          40.000  
R 2  20268938.779    84123623.750       -1377.122          44.000  
R18  22926683.787    95187717.7251       1624.263          46.000  
G25  24529023.978   100442311.341         583.286          34.000  
J 2  36248513.068   148431610.8271       -309.601          43.000  
J 4  38013392.419   155658495.9741       -757.524          44.000  
J 7  36823566.522   150786349.8451       -206.515          43.000  
R24  22413368.655    93220031.9901      -1055.180          44.000  
R17  21006028.145    87428044.5461        722.791          46.000  
R 3  20354655.564    84746705.6041       1917.892          46.000  
R 4  24054895.211   100187811.5001       3235.547          43.000  
> 2025  5 19  6  9 25.4010000  0 57                     
G 5  22383231.116   117624664.1001       1584.426          43.000  
G 6  22630413.592   118923618.7211       -975.963          44.000  
G11  22081042.511   116036656.1991        103.346          45.000  
G12  22929205.829   120493818.238        -564.117          34.000  
G17  23661532.797   124342207.2361      -2960.763          41.000  
J 4  38013408.498   199761805.9751       -971.856          43.000  
C 7  35884136.319   186858117.4431       -420.698          44.000  
C 8  36836434.121   191816981.5461       -774.435          43.000  
C10  36123922.353   188106742.4291       -107.758          42.000  
C13  37239399.453   193915327.6901       -595.287          43.000  
C14  22202560.752   115614561.894         934.790          45.000  
C33  23707030.598   123448732.513        2232.135          45.000  
R 2  20268966.923   108159092.412       -1770.491          47.000  
R18  22926638.317   122383929.0971       2088.392          44.000  
R 1  23796712.325                       -4301.527          28.000  
R24  22413387.203   119854445.5111      -1356.094          44.000  
G20  21091244.138   110835232.649        -363.074          44.000  
G25  24528995.197                         748.077          32.000  
G19  21395239.429   112432740.775       -2343.885          45.000  
S37  36823563.524   193509135.891        -265.085          41.000  
S28  37641384.472   197806808.695        -263.152          43.000  
R 4  24054800.062   128812363.6701       4160.443          37.000  
R17  21006007.735   112407406.8481        929.388          46.000  
R 3  20354602.856   108959770.3411       2466.104          48.000  
E12                                                                
E19                                                                
E23                                                                
E29                                                                
J 2  36248510.995   190487204.2531       -397.021          44.000  
J 7  36823567.504   193509153.1491       -264.987          38.000  
J 3  39743103.452   208851409.988         380.979          43.000  
G13  24182656.772   127080719.347        3229.681          35.000  
E12                                                                
E19                                                                
E23                                                                
E26                                                                
E29                                                                
C 7  35884132.769   144490533.8271       -325.232          46.000  
C 8  36836431.292   148325029.9401       -599.021          45.000  
C10  36123921.848   145456060.6731        -83.154          44.000  
C13  37239405.779   149947648.1221       -460.537          42.000  
C14  22202560.684    89400511.755         722.968          46.000  
G 5  22383236.712    91655621.5361       1234.879          39.000  
G 6  22630418.315    92667770.8161       -760.372          44.000  
G11  22081043.689    90418179.7641         80.567          44.000  
G12  22929203.677                        -439.578          31.000  
G17  23661542.750    96890056.1081      -2307.491          40.000  
R 2  20268971.991    84123761.446       -1376.990          44.000  
R18  22926644.648    95187555.2831       1624.435          46.000  
G25  24529009.827   100442253.071         582.152          34.000  
J 2  36248520.604   148431641.7671       -309.296          43.000  
J 4  38013410.892   155658571.7131       -757.390          44.000  
J 7  36823571.551   150786370.4871       -206.537          43.000  
R24  22413394.005    93220137.4471      -1054.558          44.000  
R17  21006010.782    87427972.2581        722.870          47.000  
R 3  20354609.434    84746513.7961       1918.008          46.000  
R 4  24054817.523   100187487.9561       3235.468          43.000  
> 2025  5 19  6  9 25.5010000  0 57                     
G 5  22383200.986   117624505.6771       1584.013          43.000  
G 6  22630432.177   118923716.3121       -976.022          44.000  
G11  22081040.524   116036645.8821        103.024          45.000  
G12  22929216.496   120493874.635        -563.989          34.000  
G17  23661589.154   124342503.3381      -2961.139          41.000  
J 4  38013427.025   199761903.1891       -972.228          43.000  
C 7  35884144.372   186858159.5181       -420.957          44.000  
C 8  36836449.053   191817059.0501       -775.205          43.000  
C10  36123924.439   188106753.2421       -108.270          42.000  
C13  37239410.866   193915387.2071       -595.165          43.000  
C14  22202542.812   115614468.432         934.545          45.000  
C33  23706987.671   123448509.335        2231.618          45.000  
R 2  20269000.103   108159269.484       -1770.859          47.000  
R18  22926599.181   122383720.2621       2088.151          44.000  
R 1  23796792.633                       -4300.884          28.000  
R24  22413412.586   119854581.1271      -1356.317          44.000  
G20  21091251.062   110835268.967        -363.397          44.000  
G25  24528980.994                         748.306          32.000  
G19  21395284.065   112432975.198       -2344.291          45.000  
S37  36823568.551   193509162.393        -265.112          41.000  
S28  37641389.488   197806835.032        -263.505          43.000  
R 4  24054722.378   128811947.6891       4159.772          37.000  
R17  21005990.343   112407313.9141        929.150          46.000  
R 3  20354556.806   108959523.7451       2465.830          48.000  
E12                                                                
E19                                                                
E23                                                                
E29                                                                
J 2  36248518.561   190487243.9671       -397.259          44.000  
J 7  36823572.588   193509179.6721       -265.531          38.000  
J 3  39743096.205   208851371.909         380.688          43.000  
G13  24182595.350   127080396.448        3228.644          35.000  
E12                                                                
E19                                                                
E23                                                                
E26                                                                
E29                                                                
C 7  35884140.863   144490566.3641       -325.547          46.000  
C 8  36836446.148   148325089.8411       -599.081          45.000  
C10  36123923.932   145456069.0481        -83.954          44.000  
C13  37239417.197   149947694.1481       -460.342          42.000  
C14  22202542.731    89400439.485         722.664          46.000  
G 5  22383206.564    91655498.0951       1234.162          39.000  
G 6  22630436.891    92667846.8601       -760.677          44.000  
G11  22081041.718    90418171.7241         80.238          44.000  
G12  22929214.398                        -439.105          32.000  
G17  23661599.099    96890286.8181      -2307.228          40.000  
R 2  20269005.158    84123899.180       -1377.471          44.000  
R18  22926605.499    95187392.8751       1623.921          46.000  
G25  24528995.669   100442194.751         582.981          34.000  
J 2  36248528.117   148431672.7061       -309.436          43.000  
J 4  38013429.395   155658647.4621       -757.576          44.000  
J 7  36823576.566   150786391.1251       -206.487          43.000  
R24  22413419.377    93220242.9211      -1054.836          44.000  
R17  21005993.416    87427899.9721        722.864          47.000  
R 3  20354563.377    84746321.9791       1918.062          45.000  
R 4  24054739.816   100187164.3831       3235.657          43.000  
> 2025  5 19  6  9 25.6010000  0 57                     
G 5  22383170.867   117624347.3431       1583.194          43.000  
G 6  22630450.772   118923814.0201       -977.425          44.000  
G11  22081038.567   116036635.6571        102.019          45.000  
G12  22929227.193   120493931.0831       -564.781          34.000  
G17  23661645.535   124342799.5371      -2962.242          41.000  
J 4  38013445.499   199762000.5031       -973.411          43.000  
C 7  35884152.485   186858201.7021       -422.252          44.000  
C 8  36836463.945   191817136.6071       -775.676          43.000  
C10  36123926.531   188106764.1521       -109.515          42.000  
C13  37239422.348   193915446.8541       -596.752          43.000  
C14  22202524.874   115614375.065         933.278          45.000  
C33  23706944.791   123448286.252        2230.527          45.000  
R 2  20269033.274   108159446.671       -1772.280          47.000  
R18  22926560.027   122383511.5421       2086.864          44.000  
R 1  23796872.907                       -4302.799          28.000  
R24  22413438.007   119854716.8511      -1357.476          44.000  
G20  21091257.980   110835305.387        -364.594          44.000  
G25  24528966.797   128900636.8691        746.658          32.000  
G19  21395328.696   112433209.721       -2345.433          45.000  
S37  36823573.628   193509188.982        -266.058          41.000  
S28  37641394.514   197806861.453        -264.489          42.000  
R 4  24054644.724   128811531.7911       4158.618          37.000  
R17  21005973.000   112407221.0901        927.899          46.000  
R 3  20354510.750   108959277.2591       2464.457          48.000  
E12                                                                
E19                                                                
E23                                                                
E29                                                                
J 2  36248526.142   190487283.7911       -398.547          44.000  
J 7  36823577.638   193509206.2481       -265.823          38.000  
J 3  39743088.975   208851333.922         379.570          43.000  
G13  24182533.905   127080073.547        3228.870          35.000  
E12                                                                
E19                                                                
E23                                                                
E26                                                                
E29                                                                
C 7  35884148.975   144490598.9851       -326.497          46.000  
C 8  36836461.053   148325149.8531       -600.242          45.000  
C10  36123926.073   145456077.4691        -84.436          44.000  
C13  37239428.655   149947740.2681       -461.346          42.000  
C14  22202524.810    89400367.291         721.740          46.000  
G 5  22383176.443    91655374.7161       1233.560          39.000  
G 6  22630455.476    92667923.0101       -761.738          44.000  
G11  22081039.801    90418163.7611         79.425          44.000  
G12  22929225.227    93891361.0241       -440.676          32.000  
G17  23661655.444    96890517.6261      -2308.467          40.000  
R 2  20269038.345    84124036.979       -1378.267          44.000  
R18  22926566.405    95187230.5201       1623.344          46.000  
G25  24528981.468   100442136.569         581.693          34.000  
J 2  36248535.668   148431703.7531       -310.846          43.000  
J 4  38013447.904   155658723.2901       -758.505          44.000  
J 7  36823581.637   150786411.8631       -207.458          43.000  
R24  22413444.759    93220348.5081      -1056.166          44.000  
R17  21005976.122    87427827.7851        721.600          47.000  
R 3  20354517.308    84746130.2801       1916.708          45.000  
R 4  24054662.162   100186840.9221       3234.436          43.000  
> 2025  5 19  6  9 25.7010000  0 57                     
G 5  22383140.862   117624189.5111       1576.618          43.000  
G 6  22630469.476   118923912.1861       -983.340          44.000  
G11  22081036.691   116036625.9041         95.853          45.000  
G12  22929238.016   120493988.1241       -572.237          34.000  
G17  23661702.025   124343096.2031      -2968.255          41.000  
J 4  38013464.123   199762098.2761       -979.319          43.000  
C 7  35884160.739   186858244.3301       -427.947          44.000  
C 8  36836478.938   191817214.6671       -782.150          43.000  
C10  36123928.696   188106775.5071       -115.283          42.000  
C13  37239433.912   193915506.9451       -602.620          43.000  
C14  22202507.069   115614282.175         927.183          45.000  
C33  23706902.058   123448063.624        2224.640          45.000  
R 2  20269066.564   108159624.331       -1778.343          47.000  
R18  22926520.989   122383303.2881       2080.752          44.000  
R 1  23796952.950                       -4307.500          28.000  
R24  22413463.485   119854853.0641      -1363.704          44.000  
G20  21091265.017   110835342.284        -370.599          44.000  
G25  24528952.754                         740.183          32.000  
G19  21395373.440   112433444.725       -2351.587          45.000  
S37  36823578.808   193509216.068        -272.479          41.000  
S28  37641399.652   197806888.342        -270.662          42.000  
R 4  24054567.196   128811116.3531       4152.820          37.000  
R17  21005955.765   112407128.7301        921.954          46.000  
R 3  20354464.803   108959031.2431       2458.418          48.000  
E12                                                                
E19                                                                
E23                                                                
E29                                                                
J 2  36248533.840   190487324.0731       -404.462          44.000  
J 7  36823582.801   193509233.3391       -272.538          38.000  
J 3  39743081.888   208851296.414         373.505          43.000  
G13  24182472.558   127079751.195        3222.058          35.000  
E12                                                                
E19                                                                
E23                                                                
E26                                                                
E29                                                                
C 7  35884157.142   144490631.9461       -330.892          46.000  
C 8  36836476.036   148325210.1861       -604.692          45.000  
C10  36123928.253   145456086.2531        -89.154          44.000  
C13  37239440.245   149947786.7401       -466.136          42.000  
C14  22202506.983    89400295.458         716.887          46.000  
G 5  22383146.419    91655251.7221       1228.621          39.000  
G 6  22630474.190    92667999.4801       -765.971          44.000  
G11  22081037.926    90418156.1531         74.702          44.000  
G12  22929236.112                        -445.133          32.000  
G17  23661711.902    96890748.7791      -2312.796          40.000  
R 2  20269071.639    84124175.154       -1383.158          44.000  
R18  22926527.388    95187068.5511       1618.326          46.000  
G25  24528967.403   100442078.725         576.990          35.000  
J 2  36248543.323   148431735.1191       -314.954          43.000  
J 4  38013466.521   155658799.4791       -763.270          44.000  
J 7  36823586.794   150786432.9571       -212.192          43.000  
R24  22413470.269    93220454.4221      -1060.455          44.000  
R17  21005958.883    87427755.9471        716.986          47.000  
R 3  20354471.363    84745938.9321       1912.059          45.000  
R 4  24054584.616   100186517.7961       3229.975          43.000  
> 2025  5 19  6  9 25.8010000  0 57                     
G 5  22383110.776   117624031.5351       1579.795          43.000  
G 6  22630488.116   118924010.2411       -980.553          44.000  
G11  22081034.801   116036616.0521         98.533          45.000  
G12  22929248.818   120494044.972        -568.873          34.000  
G17  23661758.470   124343392.7471      -2965.411          42.000  
J 4  38013482.747   199762195.9541       -976.728          43.000  
C 7  35884168.911   186858286.8661       -425.309          44.000  
C 8  36836493.934   191817292.6021       -779.305          43.000  
C10  36123930.834   188106786.7741       -112.561          42.000  
C13  37239445.406   193915566.9451       -599.988          43.000  
C14  22202489.143   115614189.171         930.055          45.000  
C33  23706859.236   123447840.891        2227.532          45.000  
R 2  20269099.843   108159801.884       -1775.560          47.000  
R18  22926481.925   122383094.8981       2083.936          44.000  
R 1  23797034.081                       -4308.201          28.000  
R24  22413488.924   119854989.1251      -1360.475          44.000  
G20  21091272.027   110835379.059        -367.731          44.000  
G25  24528938.627                         743.083          32.000  
G19  21395418.149   112433679.602       -2348.872          45.000  
S37  36823583.972   193509243.021        -269.406          41.000  
S28  37641404.757   197806915.113        -267.670          42.000  
R 4  24054489.621   128810700.7811       4156.208          37.000  
R17  21005938.450   112407036.2651        924.847          46.000  
R 3  20354418.820   108958785.1241       2461.196          48.000  
E12                                                                
E19                                                                
E23                                                                
E29                                                                
J 2  36248541.456   190487364.2201       -401.288          44.000  
J 7  36823587.967   193509260.3001       -269.565          37.000  
J 3  39743074.734   208851258.774         376.392          43.000  
G13  24182411.124   127079428.665        3225.385          34.000  
E12                                                                
E19                                                                
E23                                                                
E26                                                                
E29                                                                
C 7  35884165.307   144490664.8391       -328.794          46.000  
C 8  36836490.984   148325270.4701       -602.780          45.000  
C10  36123930.422   145456094.9641        -86.975          44.000  
C13  37239451.771   149947833.1141       -463.465          42.000  
C14  22202489.133    89400223.544         719.147          46.000  
G 5  22383116.392    91655128.6581       1230.573          39.000  
G 6  22630492.877    92668075.9001       -764.053          44.000  
G11  22081036.060    90418148.4871         76.637          44.000  
G12  22929246.984                        -442.527          32.000  
G17  23661768.322    96890979.8711      -2311.027          40.000  
R 2  20269104.951    84124313.257       -1380.856          44.000  
R18  22926488.357    95186906.4891       1620.719          46.000  
G25  24528953.328   100442020.805         579.256          35.000  
J 2  36248551.003   148431766.4291       -312.811          43.000  
J 4  38013485.075   155658875.5841       -760.946          44.000  
J 7  36823591.952   150786453.9721       -210.055          43.000  
R24  22413495.750    93220560.2721      -1058.464          44.000  
R17  21005941.622    87427684.0361        719.324          47.000  
R 3  20354425.367    84745747.5171       1914.233          45.000  
R 4  24054507.023   100186194.6161       3232.038          43.000  
> 2025  5 19  6  9 25.9010000  0 57                     
G 5  22383080.698   117623873.5121       1580.227          43.000  
G 6  22630506.795   118924108.2131       -979.569          44.000  
G11  22081032.840   116036606.1101         99.572          45.000  
G12  22929259.565   120494101.755        -567.765          34.000  
G17  23661814.883   124343689.2321      -2964.764          42.000  
J 4  38013501.306   199762293.5291       -975.591          43.000  
C 7  35884177.072   186858329.3231       -424.347          44.000  
C 8  36836508.916   191817370.4641       -778.398          43.000  
C10  36123932.986   188106797.9591       -111.786          42.000  
C13  37239456.927   193915626.8611       -598.989          43.000  
C14  22202471.265   115614096.096         930.856          45.000  
C33  23706816.461   123447618.113        2227.852          45.000  
R 2  20269133.084   108159979.370       -1774.730          47.000  
R18  22926442.852   122382886.4671       2084.501          44.000  
R 1  23797114.696                       -4306.188          28.000  
R24  22413514.332   119855125.1471      -1360.016          44.000  
G20  21091279.034   110835415.775        -367.090          44.000  
G25  24528924.579                         743.707          32.000  
G19  21395462.814   112433914.412       -2347.998          45.000  
S37  36823589.067   193509269.909        -268.571          41.000  
S28  37641409.840   197806941.846        -267.279          42.000  
R 4  24054412.016   128810285.2181       4156.012          37.000  
R17  21005921.156   112406943.7401        925.366          46.000  
R 3  20354372.828   108958538.9341       2462.019          48.000  
E12                                                                
E19                                                                
E23                                                                
E29                                                                
J 2  36248549.076   190487404.3371       -401.099          44.000  
J 7  36823593.051   193509287.1881       -269.050          38.000  
J 3  39743067.594   208851221.072         377.231          43.000  
G13  24182349.734   127079106.114        3225.708          35.000  
E12                                                                
E19                                                                
E23                                                                
E26                                                                
E29                                                                
C 7  35884173.453   144490697.6681       -328.146          46.000  
C 8  36836505.936   148325330.6601       -601.761          45.000  
C10  36123932.581   145456103.6161        -86.444          44.000  
C13  37239463.289   149947879.4581       -463.232          42.000  
C14  22202471.249    89400151.569         719.854          46.000  
G 5  22383086.321    91655005.4811       1231.997          39.000  
G 6  22630511.519    92668152.2281       -763.211          44.000  
G11  22081034.146    90418140.7141         77.973          44.000  
G12  22929257.860                        -443.007          32.000  
G17  23661824.728    96891210.8931      -2310.211          40.000  
R 2  20269138.169    84124451.311       -1380.519          44.000  
R18  22926449.295    95186744.3671       1621.335          46.000  
G25  24528939.258   100441962.818         579.916          35.000  
J 2  36248558.599   148431797.6701       -312.146          43.000  
J 4  38013503.642   155658951.6191       -760.167          44.000  
J 7  36823597.062   150786474.9011       -209.185          43.000  
R24  22413521.176    93220666.0381      -1057.531          44.000  
R17  21005924.311    87427612.0601        719.916          47.000  
R 3  20354379.386    84745556.0361       1914.801          45.000  
R 4  24054429.379   100185871.3491       3232.801          43.000  
> 2025  5 19  6  9 26.0010000  0 57                     
G 5  22383050.627   117623715.6551       1578.355          43.000  
G 6  22630525.501   118924206.3471       -981.645          44.000  
G11  22081030.966   116036596.3341         97.529          45.000  
G12  22929270.391   120494158.717        -569.764          34.000  
G17  23661871.332   124343985.8901      -2967.032          42.000  
J 4  38013519.899   199762391.2951       -977.937          43.000  
C 7  35884185.283   186858371.9571       -426.617          44.000  
C 8  36836523.912   191817448.5021       -780.730          43.000  
C10  36123935.209   188106809.3131       -113.934          42.000  
C13  37239468.455   193915686.9611       -601.292          43.000  
C14  22202453.418   115614003.209         928.566          45.000  
C33  23706773.705   123447395.490        2225.835          45.000  
R 2  20269166.414   108160157.037       -1777.113          47.000  
R18  22926403.860   122382678.1871       2082.439          44.000  
R 1  23797194.916                       -4306.931          28.000  
R24  22413539.830   119855261.3251      -1362.103          44.000  
G20  21091286.054   110835452.662        -369.165          44.000  
G25  24528910.471                         742.455          32.000  
G19  21395507.541   112434149.418       -2350.412          45.000  
S37  36823594.236   193509296.967        -271.052          41.000  
S28  37641414.953   197806968.730        -269.188          42.000  
R 4  24054334.458   128809869.7751       4154.114          37.000  
R17  21005903.892   112406851.3651        923.456          46.000  
R 3  20354326.871   108958292.9281       2459.662          48.000  
E12                                                                
E19                                                                
E23                                                                
E29                                                                
J 2  36248556.770   190487444.6031       -403.070          43.000  
J 7  36823598.182   193509314.2111       -270.280          38.000  
J 3  39743060.445   208851183.529         375.109          43.000  
G13  24182288.348   127078783.694        3224.048          35.000  
E12                                                                
E19                                                                
E23                                                                
E26                                                                
E29                                                                
C 7  35884181.668   144490730.6321       -329.930          46.000  
C 8  36836520.905   148325391.0181       -603.889          45.000  
C10  36123934.767   145456112.3991        -88.092          44.000  
C13  37239474.841   149947925.9261       -465.007          42.000  
C14  22202453.432    89400079.750         717.854          46.000  
G 5  22383056.308    91654882.5211       1229.079          39.000  
G 6  22630530.240    92668228.7081       -764.988          44.000  
G11  22081032.304    90418133.1251         75.593          44.000  
G12  22929268.720                        -444.741          32.000  
G17  23661881.183    96891442.0441      -2311.856          40.000  
R 2  20269171.452    84124589.498       -1382.152          44.000  
R18  22926410.261    95186582.3641       1619.802          46.000  
G25  24528925.212   100441904.984         578.248          35.000  
J 2  36248566.275   148431829.0581       -314.319          43.000  
J 4  38013522.270   155659027.8011       -762.034          44.000  
J 7  36823602.238   150786496.0021       -211.295          43.000  
R24  22413546.643    93220771.9731      -1059.716          44.000  
R17  21005907.062    87427540.2291        717.957          47.000  
R 3  20354333.455    84745364.6941       1913.129          45.000  
R 4  24054351.788   100185548.2351       3230.774          43.000  
> 2025  5 19  6  9 26.1010000  0 57                     
G 5  22383020.592   117623557.7831       1578.758          43.000  
G 6  22630544.147   118924304.4701       -981.072          44.000  
G11  22081029.095   116036586.5501         97.853          45.000  
G12  22929281.227   120494215.667        -569.634          34.000  
G17  23661927.786   124344282.4911      -2965.725          42.000  
J 4  38013538.495   199762489.0301       -977.315          43.000  
C 7  35884193.476   186858414.5441       -425.678          44.000  
C 8  36836538.874   191817526.5031       -779.988          43.000  
C10  36123937.433   188106820.6211       -112.878          42.000  
C13  37239480.009   193915747.0101       -600.428          43.000  
C14  22202435.597   115613910.284         929.345          45.000  
C33  23706730.911   123447172.819        2226.929          45.000  
R 2  20269199.746   108160334.676       -1776.358          48.000  
R18  22926364.856   122382469.8821       2083.066          44.000  
R 1  23797275.092                       -4306.542          28.000  
R24  22413565.297   119855397.4861      -1361.506          44.000  
G20  21091293.037   110835489.507        -368.268          44.000  
G25  24528896.406                         742.644          32.000  
G19  21395552.258   112434384.374       -2349.631          45.000  
S37  36823599.393   193509323.978        -269.979          41.000  
S28  37641420.080   197806995.553        -268.085          42.000  
R 4  24054256.869   128809454.2511       4155.523          37.000  
R17  21005886.636   112406758.9721        924.072          46.000  
R 3  20354280.917   108958046.8881       2460.517          48.000  
E12                                                                
E19                                                                
E23                                                                
E29                                                                
J 2  36248564.422   190487484.8201       -401.910          43.000  
J 7  36823603.331   193509341.2621       -270.499          38.000  
J 3  39743053.333   208851145.963         375.682          43.000  
G13  24182226.990   127078461.269        3224.567          34.000  
E12                                                                
E19                                                                
E23                                                                
E26                                                                
E29                                                                
C 7  35884189.879   144490763.5651       -329.257          46.000  
C 8  36836535.879   148325451.3311       -603.130          45.000  
C10  36123936.949   145456121.1541        -87.494          44.000  
C13  37239486.380   149947972.3871       -464.704          42.000  
C14  22202435.577    89400007.893         718.508          46.000  
G 5  22383026.261    91654759.4771       1230.397          39.000  
G 6  22630548.880    92668305.1581       -764.441          44.000  
G11  22081030.472    90418125.4931         76.250          44.000  
G12  22929279.682                        -443.585          32.000  
G17  23661937.613    96891673.1761      -2311.155          40.000  
R 2  20269204.737    84124727.658       -1381.547          44.000  
R18  22926371.203    95186420.3601       1620.027          46.000  
G25  24528911.175   100441847.127         578.376          35.000  
J 2  36248573.916   148431860.3911       -313.116          43.000  
J 4  38013540.889   155659103.9601       -761.461          44.000  
J 7  36823607.369   150786517.0551       -210.551          43.000  
R24  22413572.137    93220877.8651      -1058.826          44.000  
R17  21005889.801    87427468.3611        718.909          47.000  
R 3  20354287.455    84745173.3341       1913.654          45.000  
R 4  24054274.188   100185225.0801       3231.696          43.000  
> 2025  5 19  6  9 26.2010000  0 57                     
G 5  22382990.498   117623399.6301       1582.376          43.000  
G 6  22630562.739   118924402.3161       -977.639          44.000  
G11  22081027.170   116036576.4781        101.588          45.000  
G12  22929291.995   120494272.335        -565.856          34.000  
G17  23661984.176   124344578.8391      -2962.684          42.000  
J 4  38013557.018   199762586.4701       -973.411          43.000  
C 7  35884201.603   186858456.8771       -422.525          44.000  
C 8  36836553.789   191817604.2361       -776.504          43.000  
C10  36123939.538   188106831.6921       -109.924          42.000  
C13  37239491.477   193915806.8131       -597.248          43.000  
C14  22202417.664   115613817.073         932.956          45.000  
C33  23706688.047   123446949.905        2230.089          45.000  
R 2  20269232.976   108160512.051       -1772.815          48.000  
R18  22926325.770   122382261.3021       2086.727          44.000  
R 1  23797355.788                       -4304.776          28.000  
R24  22413590.715   119855533.3541      -1357.829          44.000  
G20  21091299.993   110835526.109        -365.173          44.000  
G25  24528882.246                         745.931          33.000  
G19  21395596.879   112434619.044       -2345.868          45.000  
S37  36823604.481   193509350.719        -266.435          41.000  
S28  37641425.155   197807022.148        -265.143          42.000  
R 4  24054179.236   128809038.5121       4158.380          37.000  
R17  21005869.244   112406666.3181        927.380          46.000  
R 3  20354234.907   108957800.5821       2463.879          48.000  
E12                                                                
E19                                                                
E23                                                                
E29                                                                
J 2  36248572.008   190487524.7791       -398.798          43.000  
J 7  36823608.407   193509368.0071       -266.794          38.000  
J 3  39743046.109   208851108.110         379.326          43.000  
G13  24182165.555   127078138.539        3228.217          35.000  
E12                                                                
E19                                                                
E23                                                                
E26                                                                
E29                                                                
C 7  35884198.016   144490796.3051       -326.691          46.000  
C 8  36836550.792   148325511.4381       -600.464          45.000  
C10  36123939.049   145456129.7071        -84.906          44.000  
C13  37239497.871   149948018.5971       -461.406          42.000  
C14  22202417.684    89399935.825         721.332          46.000  
G 5  22382996.150    91654636.2421       1233.011          39.000  
G 6  22630567.466    92668381.4081       -761.817          44.000  
G11  22081028.563    90418117.6451         79.122          44.000  
G12  22929290.495                        -440.782          32.000  
G17  23661994.019    96891904.0871      -2308.474          40.000  
R 2  20269237.977    84124865.624       -1379.141          44.000  
R18  22926332.125    95186258.1351       1622.928          46.000  
G25  24528897.047   100441789.075         580.882          35.000  
J 2  36248581.485   148431891.5291       -310.669          43.000  
J 4  38013559.403   155659179.8911       -758.641          44.000  
J 7  36823612.427   150786537.8861       -207.648          43.000  
R24  22413597.504    93220983.5411      -1055.983          44.000  
R17  21005872.463    87427396.2881        721.466          47.000  
R 3  20354241.435    84744981.7591       1916.456          45.000  
R 4  24054196.533   100184901.7161       3234.418          43.000  
> 2025  5 19  6  9 26.3010000  0 57                     
G 5  22382960.420   117623241.5861       1580.491          43.000  
G 6  22630581.373   118924500.2651       -979.550          44.000  
G11  22081025.270   116036566.5031         99.895          45.000  
G12  22929302.778                        -568.355          34.000  
G17  23662040.581   124344875.2901      -2964.585          42.000  
J 4  38013575.600   199762684.0311       -975.450          44.000  
C 7  35884209.789   186858499.3171       -424.546          44.000  
C 8  36836568.765   191817682.0881       -778.457          43.000  
C10  36123941.708   188106842.8501       -111.566          42.000  
C13  37239502.981   193915866.7011       -598.897          43.000  
C14  22202399.811   115613724.017         930.582          45.000  
C33  23706645.267   123446727.090        2228.198          45.000  
R 2  20269266.252   108160689.544       -1774.945          48.000  
R18  22926286.687   122382052.8231       2084.799          45.000  
R 1  23797436.023                       -4303.940          28.000  
R24  22413616.180   119855669.3421      -1359.825          44.000  
G20  21091306.958   110835562.808        -366.968          44.000  
G25  24528868.144                         744.853          33.000  
G19  21395641.575   112434853.846       -2347.951          45.000  
S37  36823609.594   193509377.570        -268.538          41.000  
S28  37641430.221   197807048.821        -266.742          42.000  
R 4  24054101.632   128808622.8511       4156.635          37.000  
R17  21005851.909   112406573.7481        925.745          46.000  
R 3  20354188.884   108957554.3841       2462.042          48.000  
E12                                                                
E19                                                                
E23                                                                
E29                                                                
J 2  36248579.647   190487564.8441       -400.604          43.000  
J 7  36823613.524   193509394.8291       -268.105          38.000  
J 3  39743038.908   208851070.375         377.373          43.000  
G13  24182104.185   127077815.922        3226.288          35.000  
E12                                                                
E19                                                                
E23                                                                
E26                                                                
E29                                                                
C 7  35884206.180   144490829.1141       -328.137          46.000  
C 8  36836565.750   148325571.6311       -601.935          45.000  
C10  36123941.183   145456138.3231        -86.182          44.000  
C13  37239509.379   149948064.9181       -463.271          42.000  
C14  22202399.835    89399863.857         719.623          46.000  
G 5  22382966.074    91654513.1051       1231.212          39.000  
G 6  22630586.093    92668457.7161       -763.051          44.000  
G11  22081026.636    90418109.8801         77.742          44.000  
G12  22929301.376                        -443.243          32.000  
G17  23662050.443    96892135.0921      -2310.171          40.000  
R 2  20269271.268    84125003.663       -1380.519          44.000  
R18  22926293.073    95186095.9761       1621.541          46.000  
G25  24528882.874   100441731.062         580.099          35.000  
J 2  36248589.096   148431922.7491       -312.366          43.000  
J 4  38013577.963   155659255.9111       -760.211          44.000  
J 7  36823617.530   150786558.8051       -209.174          43.000  
R24  22413622.965    93221089.3081      -1057.706          44.000  
R17  21005855.195    87427324.2871        720.074          47.000  
R 3  20354195.458    84744790.2771       1914.730          45.000  
R 4  24054118.921   100184578.4191       3232.947          43.000  
> 2025  5 19  6  9 26.4010000  0 57                     
G 5  22382930.351   117623083.5341       1580.257          43.000  
G 6  22630600.046   118924598.1881       -979.378          44.000  
G11  22081023.359   116036556.5231         99.721          45.000  
G12  22929313.605   120494385.929        -567.979          34.000  
G17  23662096.995   124345171.7321      -2964.712          42.000  
J 4  38013594.138   199762781.5801       -975.648          44.000  
C 7  35884217.965   186858541.7271       -424.331          44.000  
C 8  36836583.750   191817759.8931       -778.169          43.000  
C10  36123943.889   188106853.9851       -111.475          42.000  
C13  37239514.446   193915926.5811       -598.993          43.000  
C14  22202381.914   115613630.922         930.735          45.000  
C33  23706602.504   123446504.260        2228.110          45.000  
R 2  20269299.518   108160867.003       -1774.812          48.000  
R18  22926247.614   122381844.3121       2084.928          45.000  
R 1  23797516.686                       -4304.786          28.000  
R24  22413641.655   119855805.3011      -1359.728          44.000  
G20  21091313.945   110835599.483        -366.840          44.000  
G25  24528854.033   128900042.0721        743.505          33.000  
G19  21395686.219   112435088.624       -2347.828          45.000  
S37  36823614.706   193509404.404        -268.491          41.000  
S28  37641435.287   197807075.484        -266.748          42.000  
R 4  24054024.048   128808207.2011       4156.262          37.000  
R17  21005834.616   112406481.1641        925.623          46.000  
R 3  20354142.872   108957308.1871       2461.761          48.000  
E12                                                                
E19                                                                
E23                                                                
E29                                                                
J 2  36248587.223   190487604.9011       -400.726          43.000  
J 7  36823618.604   193509421.6741       -268.524          38.000  
J 3  39743031.737   208851032.604         377.576          43.000  
G13  24182042.797   127077493.306        3225.934          35.000  
E12                                                                
E19                                                                
E23                                                                
E26                                                                
E29                                                                
C 7  35884214.314   144490861.9151       -328.139          46.000  
C 8  36836580.692   148325631.8041       -601.890          45.000  
C10  36123943.331   145456146.9521        -86.505          44.000  
C13  37239520.889   149948111.2211       -463.063          42.000  
C14  22202381.964    89399791.869         719.781          46.000  
G 5  22382936.002    91654389.9481       1231.473          39.000  
G 6  22630604.742    92668534.0301       -763.205          44.000  
G11  22081024.731    90418102.1041         77.611          44.000  
G12  22929312.173                        -441.900          32.000  
G17  23662106.834    96892366.0901      -2310.237          40.000  
R 2  20269304.545    84125141.699       -1380.473          44.000  
R18  22926254.009    95185933.8171       1621.438          46.000  
G25  24528868.704   100441673.063         579.839          35.000  
J 2  36248596.718   148431953.9621       -312.231          43.000  
J 4  38013596.555   155659331.9121       -760.061          44.000  
J 7  36823622.612   150786579.7231       -209.379          43.000  
R24  22413648.394    93221195.0641      -1057.670          44.000  
R17  21005837.898    87427252.2891        719.830          47.000  
R 3  20354149.461    84744598.7841       1914.737          45.000  
R 4  24054041.329   100184255.1391       3232.709          43.000  
> 2025  5 19  6  9 26.5010000  0 57                     
G 5  22382900.278   117622925.5371       1579.917          43.000  
G 6  22630618.705   118924696.1631       -979.942          44.000  
G11  22081021.457   116036546.5951         99.167          45.000  
G12  22929324.348   120494442.741        -567.885          33.000  
G17  23662153.413   124345468.2271      -2964.963          42.000  
J 4  38013612.735   199762879.1641       -975.833          44.000  
C 7  35884226.084   186858584.1951       -424.796          44.000  
C 8  36836598.726   191817837.7831       -779.053          43.000  
C10  36123946.045   188106865.1871       -112.183          42.000  
C13  37239525.916   193915986.5121       -599.389          43.000  
C14  22202363.966   115613537.879         930.240          45.000  
C33  23706559.748   123446281.494        2227.498          45.000  
R 2  20269332.824   108161044.553       -1775.657          48.000  
R18  22926208.562   122381635.8741       2084.436          45.000  
R 1  23797596.884                       -4306.190          28.000  
R24  22413667.068   119855941.3351      -1360.366          44.000  
G20  21091320.914   110835636.227        -367.529          44.000  
G25  24528839.861   128899967.7121        743.243          33.000  
G19  21395730.945   112435323.484       -2348.669          45.000  
S37  36823619.823   193509431.275        -268.674          41.000  
S28  37641440.390   197807102.192        -267.121          42.000  
R 4  24053946.439   128807791.5861       4156.000          37.000  
R17  21005817.323   112406388.6381        925.214          46.000  
R 3  20354096.907   108957062.0381       2461.450          48.000  
E12                                                                
E19                                                                
E23                                                                
E29                                                                
J 2  36248594.846   190487645.0021       -401.172          43.000  
J 7  36823623.746   193509448.5631       -268.950          38.000  
J 3  39743024.543   208850994.898         376.916          43.000  
G13  24181981.419   127077170.701        3226.117          35.000  
E12                                                                
E19                                                                
E23                                                                
E26                                                                
E29                                                                
C 7  35884222.487   144490894.7371       -328.168          46.000  
C 8  36836595.660   148325692.0181       -602.163          45.000  
C10  36123945.474   145456155.5991        -86.401          44.000  
C13  37239532.392   149948157.5601       -463.450          42.000  
C14  22202364.095    89399719.928         719.330          46.000  
G 5  22382905.933    91654266.8221       1231.050          39.000  
G 6  22630623.368    92668610.3711       -763.435          44.000  
G11  22081022.888    90418094.3581         77.480          44.000  
G12  22929323.111                        -443.156          32.000  
G17  23662163.257    96892597.1071      -2310.068          40.000  
R 2  20269337.826    84125279.785       -1381.006          44.000  
R18  22926214.966    95185771.6851       1621.297          46.000  
G25  24528854.540   100441615.150         578.902          35.000  
J 2  36248604.320   148431985.1961       -312.268          43.000  
J 4  38013615.116   155659407.9661       -760.635          44.000  
J 7  36823627.732   150786600.6641       -209.443          43.000  
R24  22413673.826    93221300.8601      -1057.997          44.000  
R17  21005820.610    87427180.3181        719.666          47.000  
R 3  20354103.454    84744407.3411       1914.359          45.000  
R 4  24053963.705   100183931.8791       3232.538          43.000  
> 2025  5 19  6  9 26.6010000  0 57                     
G 5  22382870.218   117622767.5091       1580.330          43.000  
G 6  22630637.345   118924794.1251       -979.372          44.000  
G11  22081019.510   116036536.6341         99.833          45.000  
G12  22929335.189   120494499.588        -568.507          33.000  
G17  23662209.817   124345764.6781      -2964.322          42.000  
J 4  38013631.272   199762976.7321       -975.467          44.000  
C 7  35884234.266   186858626.6311       -424.091          44.000  
C 8  36836613.655   191817915.6281       -778.427          43.000  
C10  36123948.140   188106876.3511       -111.450          42.000  
C13  37239537.470   193916046.4221       -598.895          43.000  
C14  22202346.068   115613444.816         930.709          45.000  
C33  23706516.947   123446058.692        2228.215          45.000  
R 2  20269366.112   108161222.059       -1774.868          48.000  
R18  22926169.526   122381427.3921       2085.061          45.000  
R 1  23797677.409                       -4305.273          28.000  
R24  22413692.502   119856077.3301      -1359.805          44.000  
G20  21091327.883   110835672.930        -366.754          44.000  
G25  24528825.659   128899893.2901        744.279          33.000  
G19  21395775.635   112435558.303       -2348.042          45.000  
S37  36823624.938   193509458.139        -268.485          41.000  
S28  37641445.486   197807128.885        -266.622          42.000  
R 4  24053868.837   128807375.9291       4156.775          37.000  
R17  21005799.992   112406296.0841        925.885          46.000  
R 3  20354050.868   108956815.8681       2461.939          48.000  
E12                                                                
E19                                                                
E23                                                                
E29                                                                
J 2  36248602.488   190487685.0741       -400.525          43.000  
J 7  36823628.882   193509475.4091       -268.452          38.000  
J 3  39743017.366   208850957.160         377.522          43.000  
G13  24181920.049   127076848.106        3226.166          35.000  
E12                                                                
E19                                                                
E23                                                                
E26                                                                
E29                                                                
C 7  35884230.651   144490927.5591       -328.043          46.000  
C 8  36836610.615   148325752.2191       -601.970          45.000  
C10  36123947.610   145456164.2291        -86.108          44.000  
C13  37239543.904   149948203.8841       -463.093          42.000  
C14  22202346.227    89399647.974         719.567          46.000  
G 5  22382875.854    91654143.6851       1231.458          39.000  
G 6  22630642.028    92668686.6981       -763.146          44.000  
G11  22081020.985    90418086.5971         77.793          44.000  
G12  22929333.998                        -442.219          32.000  
G17  23662219.713    96892828.1341      -2309.997          40.000  
R 2  20269371.106    84125417.847       -1380.463          44.000  
R18  22926175.908    95185609.5321       1621.634          46.000  
G25  24528840.355   100441557.168         579.927          35.000  
J 2  36248611.957   148432016.4261       -312.177          43.000  
J 4  38013633.679   155659483.9891       -760.191          44.000  
J 7  36823632.838   150786621.6051       -209.401          43.000  
R24  22413699.263    93221406.6251      -1057.525          44.000  
R17  21005803.321    87427108.3261        720.184          47.000  
R 3  20354057.475    84744215.8711       1914.771          45.000  
R 4  24053886.063   100183608.5971       3232.905          43.000  
> 2025  5 19  6  9 26.7010000  0 57                     
G 5  22382840.120   117622609.3681       1581.773          43.000  
G 6  22630655.951   118924891.9351       -977.743          44.000  
G11  22081017.574   116036526.5501        101.176          45.000  
G12  22929345.934   120494556.258        -566.597          33.000  
G17  23662266.192   124346061.0211      -2963.093          42.000  
J 4  38013649.815   199763074.1761       -974.052          43.000  
C 7  35884242.391   186858668.9531       -422.836          44.000  
C 8  36836628.614   191817993.3351       -776.644          43.000  
C10  36123950.200   188106887.3851       -109.955          42.000  
C13  37239548.960   193916106.1871       -597.341          43.000  
C14  22202328.225   115613351.635         932.150          45.000  
C33  23706474.114   123445835.760        2229.722          45.000  
R 2  20269399.354   108161399.448       -1773.512          48.000  
R18  22926130.438   122381218.7841       2086.413          45.000  
R 1  23797757.369                       -4304.576          27.000  
R24  22413717.894   119856213.1991      -1358.386          44.000  
G20  21091334.824   110835709.527        -365.637          44.000  
G25  24528811.523   128899818.7861        745.460          33.000  
G19  21395820.284   112435792.984       -2346.345          45.000  
S37  36823630.046   193509484.858        -266.764          41.000  
S28  37641450.540   197807155.434        -265.126          42.000  
R 4  24053791.196   128806960.1461       4158.301          37.000  
R17  21005782.667   112406203.4041        927.167          46.000  
R 3  20354004.842   108956569.5721       2463.359          48.000  
E12                                                                
E19                                                                
E23                                                                
E29                                                                
J 2  36248610.072   190487725.0071       -398.853          43.000  
J 7  36823633.958   193509502.1251       -266.683          38.000  
J 3  39743010.167   208850919.276         379.255          43.000  
G13  24181858.653   127076525.356        3227.991          34.000  
E12                                                                
E19                                                                
E23                                                                
E26                                                                
E29                                                                
C 7  35884238.763   144490960.2801       -326.872          46.000  
C 8  36836625.526   148325812.3151       -600.691          45.000  
C10  36123949.721   145456172.7771        -85.211          44.000  
C13  37239555.380   149948250.1031       -461.986          42.000  
C14  22202328.341    89399575.915         720.840          46.000  
G 5  22382845.756    91654020.4451       1232.745          39.000  
G 6  22630660.664    92668762.9271       -761.997          44.000  
G11  22081019.061    90418078.7441         78.850          44.000  
G12  22929344.861                        -442.253          32.000  
G17  23662276.117    96893059.0421      -2308.742          40.000  
R 2  20269404.341    84125555.826       -1379.393          44.000  
R18  22926136.832    95185447.2841       1622.817          46.000  
G25  24528826.154   100441499.136         580.423          35.000  
J 2  36248619.537   148432047.5541       -310.913          43.000  
J 4  38013652.220   155659559.9101       -758.844          44.000  
J 7  36823637.925   150786642.4271       -207.937          43.000  
R24  22413724.638    93221512.3081      -1056.510          44.000  
R17  21005785.968    87427036.2481        721.112          47.000  
R 3  20354011.467    84744024.3111       1915.975          45.000  
R 4  24053808.381   100183285.2141       3234.174          43.000  
> 2025  5 19  6  9 26.8010000  0 57                     
G 5  22382810.039   117622451.1871       1582.283          43.000  
G 6  22630674.553   118924989.7521       -977.812          44.000  
G11  22081015.661   116036516.4341        101.646          45.000  
G12  22929356.663   120494612.938        -566.084          33.000  
G17  23662322.588   124346357.3331      -2962.827          42.000  
J 4  38013668.361   199763171.5721       -973.531          43.000  
C 7  35884250.506   186858711.2241       -422.140          44.000  
C 8  36836643.541   191818071.0411       -776.639          43.000  
C10  36123952.363   188106898.4011       -109.656          42.000  
C13  37239560.453   193916165.9431       -597.053          43.000  
C14  22202310.314   115613258.418         932.616          45.000  
C33  23706431.261   123445612.809        2229.987          45.000  
R 2  20269432.597   108161576.825       -1773.340          48.000  
R18  22926091.295   122381010.1461       2086.905          45.000  
R 1  23797837.830                       -4303.454          27.000  
R24  22413743.303   119856349.0361      -1357.842          44.000  
G20  21091341.781   110835746.085        -365.173          44.000  
G25  24528797.324   128899744.2771        745.709          33.000  
G19  21395864.929   112436027.666       -2346.357          45.000  
S37  36823635.131   193509511.548        -266.193          41.000  
S28  37641455.595   197807181.940        -264.562          42.000  
R 4  24053713.581   128806544.3341       4158.630          37.000  
R17  21005765.332   112406110.7011        927.484          46.000  
R 3  20353958.838   108956323.2531       2463.655          48.000  
E12                                                                
E19                                                                
E23                                                                
E29                                                                
J 2  36248617.650   190487764.9111       -398.541          43.000  
J 7  36823639.073   193509528.8411       -266.702          38.000  
J 3  39743002.970   208850881.394         379.259          43.000  
G13  24181797.270   127076202.571        3228.461          34.000  
E12                                                                
E19                                                                
E23                                                                
E26                                                                
E29                                                                
C 7  35884246.877   144490992.9621       -326.372          46.000  
C 8  36836640.432   148325872.3841       -600.250          45.000  
C10  36123951.875   145456181.2821        -84.540          44.000  
C13  37239566.834   149948296.3161       -461.875          42.000  
C14  22202310.468    89399503.835         721.204          46.000  
G 5  22382815.687    91653897.2101       1232.595          39.000  
G 6  22630679.280    92668839.1181       -761.535          44.000  
G11  22081017.142    90418070.8571         79.159          44.000  
G12  22929355.738                        -440.781          32.000  
G17  23662332.508    96893289.9351      -2308.572          40.000  
R 2  20269437.609    84125693.774       -1379.103          44.000  
R18  22926097.746    95185285.0001       1623.290          46.000  
G25  24528811.943   100441441.003         581.551          35.000  
J 2  36248627.129   148432078.6341       -310.345          43.000  
J 4  38013670.730   155659635.8011       -758.516          44.000  
J 7  36823642.994   150786663.2161       -207.494          43.000  
R24  22413750.050    93221617.9481      -1055.964          44.000  
R17  21005768.661    87426964.1311        721.631          47.000  
R 3  20353965.451    84743832.7251       1916.284          45.000  
R 4  24053730.717   100182961.7981       3234.620          43.000  
> 2025  5 19  6  9 26.9010000  0 57                     
G 5  22382779.937   117622292.8851       1583.101          43.000  
G 6  22630693.130   118925087.3981       -976.232          44.000  
G11  22081013.664   116036506.1821        102.687          45.000  
G12  22929367.395   120494669.458        -565.106          33.000  
G17  23662378.970   124346653.5391      -2961.966          42.000  
J 4  38013686.842   199763268.8531       -972.843          43.000  
C 7  35884258.553   186858753.3991       -421.684          44.000  
C 8  36836658.465   191818148.5831       -775.222          43.000  
C10  36123954.424   188106909.2831       -108.746          42.000  
C13  37239571.855   193916225.5471       -595.911          43.000  
C14  22202292.426   115613165.083         933.417          45.000  
C33  23706388.385   123445389.748        2230.673          45.000  
R 2  20269465.834   108161754.063       -1772.306          48.000  
R18  22926052.168   122380801.3571       2088.005          45.000  
R 1  23797918.564                       -4302.433          27.000  
R24  22413768.652   119856484.7481      -1357.045          44.000  
G20  21091348.690   110835782.514        -364.276          44.000  
G25  24528783.066                         747.110          33.000  
G19  21395909.550   112436262.210       -2345.293          45.000  
S37  36823640.175   193509538.142        -265.995          41.000  
S28  37641460.573   197807208.346        -263.968          42.000  
R 4  24053635.929   128806128.4021       4159.405          37.000  
R17  21005747.987   112406017.8501        928.699          46.000  
R 3  20353912.804   108956076.8131       2464.496          48.000  
E12                                                                
E19                                                                
E23                                                                
E29                                                                
J 2  36248625.247   190487804.7271       -398.212          43.000  
J 7  36823644.142   193509555.4081       -265.697          38.000  
J 3  39742995.712   208850843.346         380.754          43.000  
G13  24181735.791   127075879.662        3229.297          34.000  
E12                                                                
E19                                                                
E23                                                                
E26                                                                
E29                                                                
C 7  35884255.008   144491025.5741       -326.067          46.000  
C 8  36836655.337   148325932.3631       -599.705          45.000  
C10  36123953.975   145456189.7021        -84.033          44.000  
C13  37239578.288   149948342.3961       -460.715          42.000  
C14  22202292.536    89399431.662         721.736          46.000  
G 5  22382785.585    91653773.8271       1233.959          39.000  
G 6  22630697.885    92668915.2261       -761.015          44.000  
G11  22081015.195    90418062.8681         80.000          44.000  
G12  22929366.484                        -440.308          32.000  
G17  23662388.860    96893520.7511      -2308.132          40.000  
R 2  20269470.829    84125831.630       -1378.469          44.000  
R18  22926058.609    95185122.6141       1623.965          46.000  
G25  24528797.726   100441382.831         581.689          35.000  
J 2  36248634.686   148432109.6581       -310.175          43.000  
J 4  38013689.233   155659711.6091       -758.009          44.000  
J 7  36823648.044   150786683.9241       -207.003          43.000  
R24  22413775.436    93221723.5141      -1055.429          44.000  
R17  21005751.303    87426891.9241        722.241          47.000  
R 3  20353919.388    84743641.0541       1916.729          45.000  
R 4  24053653.046   100182638.3061       3234.931          43.000  
> 2025  5 19  6  9 27.0010000  0 57                     
G 5  22382749.785   117622134.5021       1584.867          43.000  
G 6  22630711.707   118925184.9831       -974.947          44.000  
G11  22081011.678   116036495.8401        104.426          45.000  
G12  22929378.131   120494725.902        -563.382          33.000  
G17  23662435.336   124346949.6411      -2959.875          42.000  
J 4  38013705.359   199763366.0411       -970.758          44.000  
C 7  35884266.666   186858795.4421       -419.258          44.000  
C 8  36836673.359   191818226.0681       -773.804          43.000  
C10  36123956.456   188106920.0731       -106.824          42.000  
C13  37239583.326   193916285.0781       -594.221          43.000  
C14  22202274.428   115613071.672         935.214          45.000  
C33  23706345.463   123445166.580        2232.865          45.000  
R 2  20269499.034   108161931.211       -1770.380          47.000  
R18  22926013.039   122380592.4891       2089.731          45.000  
R 1  23797999.413                       -4300.345          27.000  
R24  22413794.037   119856620.3891      -1355.323          44.000  
G20  21091355.623   110835818.835        -361.981          44.000  
G25  24528768.865                         747.867          33.000  
G19  21395954.192   112436496.684       -2343.853          45.000  
S37  36823645.191   193509564.597        -263.330          41.000  
S28  37641465.562   197807234.651        -262.040          42.000  
R 4  24053558.278   128805712.3731       4161.469          37.000  
R17  21005730.636   112405924.9061        930.579          46.000  
R 3  20353866.763   108955830.2861       2466.362          48.000  
E12                                                                
E19                                                                
E23                                                                
E29                                                                
J 2  36248632.815   190487844.4151       -395.630          43.000  
J 7  36823649.174   193509581.8881       -264.089          38.000  
J 3  39742988.464   208850805.230         382.209          43.000  
G13  24181674.300   127075556.688        3231.152          34.000  
E12                                                                
E19                                                                
E23                                                                
E26                                                                
E29                                                                
C 7  35884263.081   144491058.0931       -324.269          46.000  
C 8  36836670.201   148325992.2671       -598.262          45.000  
C10  36123956.034   145456198.0461        -82.562          44.000  
C13  37239589.737   149948388.4311       -459.577          42.000  
C14  22202274.596    89399359.429         723.128          46.000  
G 5  22382755.453    91653650.4301       1234.814          39.000  
G 6  22630716.494    92668991.2561       -759.342          44.000  
G11  22081013.236    90418054.8121         81.296          44.000  
G12  22929377.279                        -439.324          32.000  
G17  23662445.207    96893751.4801      -2306.519          40.000  
R 2  20269504.050    84125969.428       -1377.198          44.000  
R18  22926019.490    95184960.1591       1625.424          46.000  
G25  24528783.510   100441324.612         582.919          35.000  
J 2  36248642.245   148432140.5931       -308.539          43.000  
J 4  38013707.700   155659787.3371       -756.405          44.000  
J 7  36823653.075   150786704.5571       -205.541          43.000  
R24  22413800.795    93221829.0041      -1054.113          43.000  
R17  21005733.914    87426819.6331        723.798          47.000  
R 3  20353873.320    84743449.3211       1918.089          45.000  
R 4  24053575.354   100182314.7331       3236.713          43.000  
> 2025  5 19  6  9 27.1010000  0 57                     
G 5  22382719.579   117621975.8731       1586.502          43.000  
G 6  22630730.219   118925282.3151       -973.134          44.000  
G11  22081009.628   116036485.2681        106.051          45.000  
G12  22929388.821   120494782.149        -562.017          34.000  
G17  23662491.642   124347245.5131      -2958.271          42.000  
J 4  38013723.803   199763462.9851       -969.194          44.000  
C 7  35884274.671   186858837.2951       -418.249          44.000  
C 8  36836688.174   191818303.2981       -772.020          43.000  
C10  36123958.497   188106930.6451       -105.524          42.000  
C13  37239594.724   193916344.3851       -593.021          43.000  
C14  22202256.435   115612978.027         936.574          45.000  
C33  23706302.547   123444943.187        2234.225          45.000  
R 2  20269532.199   108162108.143       -1769.021          47.000  
R18  22925973.844   122380383.3871       2091.167          45.000  
R 1  23798080.233                       -4298.894          28.000  
R24  22413819.355   119856755.7661      -1353.553          44.000  
G20  21091362.463   110835854.974        -361.102          44.000  
G25  24528754.585   128899519.8871        749.996          33.000  
G19  21395998.783   112436730.899       -2341.944          45.000  
S37  36823650.162   193509590.844        -262.219          41.000  
S28  37641470.496   197807260.717        -260.466          42.000  
R 4  24053480.552   128805296.1291       4162.695          37.000  
R17  21005713.250   112405831.7621        931.561          46.000  
R 3  20353820.637   108955583.5281       2467.831          48.000  
E12                                                                
E19                                                                
E23                                                                
E29                                                                
J 2  36248640.313   190487883.8781       -394.250          43.000  
J 7  36823654.214   193509608.0961       -261.808          38.000  
J 3  39742981.162   208850766.859         384.008          43.000  
G13  24181612.808   127075233.452        3232.581          34.000  
E12                                                                
E19                                                                
E23                                                                
E26                                                                
E29                                                                
C 7  35884271.089   144491090.4561       -323.395          46.000  
C 8  36836685.032   148326051.9901       -596.937          45.000  
C10  36123958.059   145456206.2271        -81.708          44.000  
C13  37239601.113   149948434.2851       -458.397          42.000  
C14  22202256.597    89399287.006         724.484          46.000  
G 5  22382725.252    91653526.8311       1236.107          39.000  
G 6  22630734.995    92669067.1091       -758.289          44.000  
G11  22081011.187    90418046.5791         82.566          44.000  
G12  22929388.043                        -437.633          32.000  
G17  23662501.540    96893982.0181      -2305.192          40.000  
R 2  20269537.164    84126107.026       -1375.749          44.000  
R18  22925980.295    95184797.5271       1626.569          46.000  
G25  24528769.212   100441266.141         585.101          35.000  
J 2  36248649.760   148432171.3311       -307.141          43.000  
J 4  38013726.122   155659862.8791       -755.103          44.000  
J 7  36823658.032   150786724.9771       -203.729          43.000  
R24  22413826.110    93221934.3021      -1052.669          43.000  
R17  21005716.492    87426747.1741        724.786          47.000  
R 3  20353827.194    84743257.3901       1919.500          45.000  
R 4  24053497.576   100181990.9651       3237.983          43.000  
> 2025  5 19  6  9 27.2010000  0 57                     
G 5  22382689.445   117621817.5041       1583.172          43.000  
G 6  22630748.792   118925379.9131       -976.527          44.000  
G11  22081007.677   116036474.9531        102.580          45.000  
G12  22929399.598   120494838.633        -565.579          34.000  
G17  23662547.995   124347541.6531      -2962.214          42.000  
J 4  38013742.326   199763560.1971       -972.656          44.000  
C 7  35884282.778   186858879.3821       -421.536          44.000  
C 8  36836703.103   191818380.7991       -775.425          43.000  
C10  36123960.563   188106941.4551       -108.636          42.000  
C13  37239606.194   193916403.9301       -596.078          43.000  
C14  22202238.550   115612884.633         933.361          45.000  
C33  23706259.723   123444720.059        2230.723          45.000  
R 2  20269565.427   108162285.339       -1772.593          47.000  
R18  22925934.723   122380174.5211       2088.147          45.000  
R 1  23798161.201                       -4300.612          28.000  
R24  22413844.721   119856891.4271      -1357.115          44.000  
G20  21091369.341   110835891.324        -363.971          44.000  
G25  24528740.448                         746.901          33.000  
G19  21396043.423   112436965.405       -2345.579          45.000  
S37  36823655.211   193509617.334        -265.484          41.000  
S28  37641475.502   197807287.029        -263.669          42.000  
R 4  24053402.889   128804880.1061       4159.381          37.000  
R17  21005695.875   112405738.8271        928.760          46.000  
R 3  20353774.565   108955337.0341       2464.302          48.000  
E12                                                                
E19                                                                
E23                                                                
E29                                                                
J 2  36248647.882   190487923.6051       -397.998          43.000  
J 7  36823659.274   193509634.6121       -265.648          38.000  
J 3  39742973.906   208850728.748         380.673          43.000  
G13  24181551.342   127074910.471        3229.181          34.000  
E12                                                                
E19                                                                
E23                                                                
E26                                                                
E29                                                                
C 7  35884279.202   144491122.9881       -325.815          46.000  
C 8  36836699.915   148326111.9241       -599.785          45.000  
C10  36123960.141   145456214.5771        -84.039          44.000  
C13  37239612.546   149948480.3321       -460.812          42.000  
C14  22202238.651    89399214.799         721.717          46.000  
G 5  22382695.111    91653403.4331       1233.538          39.000  
G 6  22630753.585    92669143.1541       -760.860          44.000  
G11  22081009.194    90418038.5261         80.048          44.000  
G12  22929398.893                        -440.590          32.000  
G17  23662557.910    96894212.7841      -2308.284          40.000  
R 2  20269570.416    84126244.847       -1378.594          45.000  
R18  22925941.139    95184635.0841       1624.013          46.000  
G25  24528754.962   100441207.924         582.132          35.000  
J 2  36248657.307   148432202.2931       -310.162          43.000  
J 4  38013744.616   155659938.6331       -758.073          44.000  
J 7  36823663.104   150786745.6501       -207.142          43.000  
R24  22413851.483    93222039.8051      -1055.543          43.000  
R17  21005699.129    87426674.9031        722.327          47.000  
R 3  20353781.125    84743065.6671       1916.798          45.000  
R 4  24053419.891   100181667.4211       3234.912          43.000  
> 2025  5 19  6  9 27.3010000  0 57                     
G 5  22382659.323   117621659.1611       1583.161          43.000  
G 6  22630767.392   118925477.5271       -976.495          44.000  
G11  22081005.710   116036464.6481        102.917          45.000  
G12  22929410.349   120494895.135        -565.179          34.000  
G17  23662604.385   124347837.8101      -2961.764          42.000  
J 4  38013760.800   199763657.4211       -972.550          44.000  
C 7  35884290.895   186858921.4641       -420.978          44.000  
C 8  36836717.962   191818458.2961       -775.230          43.000  
C10  36123962.614   188106952.2571       -108.197          42.000  
C13  37239617.658   193916463.4651       -595.550          43.000  
C14  22202220.634   115612791.248         933.651          45.000  
C33  23706216.845   123444496.935        2231.028          45.000  
R 2  20269598.680   108162462.561       -1772.515          47.000  
R18  22925895.599   122379965.6871       2088.148          45.000  
R 1  23798242.730                       -4302.064          28.000  
R24  22413870.096   119857027.1191      -1357.284          44.000  
G20  21091376.271   110835927.698        -363.739          44.000  
G25  24528726.198                         746.760          33.000  
G19  21396088.083   112437199.912       -2345.303          45.000  
S37  36823660.257   193509643.828        -264.993          41.000  
S28  37641480.507   197807313.351        -263.339          42.000  
R 4  24053325.220   128804464.1171       4159.674          37.000  
R17  21005678.492   112405645.9331        928.741          46.000  
R 3  20353728.537   108955090.5591       2464.467          48.000  
E12                                                                
E19                                                                
E23                                                                
E29                                                                
J 2  36248655.439   190487963.3191       -397.272          43.000  
J 7  36823664.305   193509661.0921       -265.104          38.000  
J 3  39742966.656   208850690.664         380.568          43.000  
G13  24181489.891   127074587.503        3229.504          34.000  
E12                                                                
E19                                                                
E23                                                                
E26                                                                
E29                                                                
C 7  35884287.280   144491155.5521       -325.759          46.000  
C 8  36836714.804   148326171.8531       -599.504          45.000  
C10  36123962.253   145456222.9341        -83.655          44.000  
C13  37239623.964   149948526.3861       -460.813          42.000  
C14  22202220.724    89399142.585         721.922          46.000  
G 5  22382664.979    91653280.0181       1234.052          39.000  
G 6  22630772.176    92669219.2341       -761.096          44.000  
G11  22081007.205    90418030.5001         80.207          44.000  
G12  22929409.693                        -439.841          32.000  
G17  23662614.269    96894443.5391      -2307.529          40.000  
R 2  20269603.640    84126382.683       -1378.497          45.000  
R18  22925901.985    95184472.6551       1624.035          46.000  
G25  24528740.796   100441149.746         581.641          35.000  
J 2  36248664.845   148432233.2491       -309.753          43.000  
J 4  38013763.102   155660014.4011       -757.980          44.000  
J 7  36823668.109   150786766.2741       -206.420          43.000  
R24  22413876.895    93222145.3491      -1055.649          43.000  
R17  21005681.748    87426602.6591        722.302          47.000  
R 3  20353735.071    84742873.9621       1916.837          45.000  
R 4  24053342.184   100181343.8661       3235.486          43.000  
> 2025  5 19  6  9 27.4010000  0 57                     
G 5  22382629.190   117621500.8851       1581.892          43.000  
G 6  22630785.974   118925575.2311       -977.964          44.000  
G11  22081003.747   116036454.4291        101.340          45.000  
G12  22929420.987   120494951.709        -566.750          33.000  
G17  23662660.788   124348134.0701      -2963.487          42.000  
J 4  38013779.330   199763754.7251       -973.818          44.000  
C 7  35884299.004   186858963.6571       -422.976          44.000  
C 8  36836732.869   191818535.8741       -776.791          43.000  
C10  36123964.661   188106963.1781       -110.120          42.000  
C13  37239629.123   193916523.1071       -597.389          43.000  
C14  22202202.685   115612697.966         931.834          45.000  
C33  23706174.025   123444273.897        2229.388          45.000  
R 2  20269631.909   108162639.879       -1774.126          48.000  
R18  22925856.463   122379756.9401       2086.572          45.000  
R 1  23798324.009                       -4303.435          28.000  
R24  22413895.461   119857162.9021      -1358.827          44.000  
G20  21091383.229   110835964.188        -365.924          44.000  
G25  24528712.043                         743.352          33.000  
G19  21396132.735   112437434.508       -2346.787          45.000  
S37  36823665.296   193509670.421        -266.670          42.000  
S28  37641485.532   197807339.755        -264.912          42.000  
R 4  24053247.530   128804048.2621       4157.361          37.000  
R17  21005661.141   112405553.1351        927.124          46.000  
R 3  20353682.514   108954844.1711       2462.962          48.000  
E12                                                                
E19                                                                
E23                                                                
E29                                                                
J 2  36248663.009   190488003.1591       -399.390          43.000  
J 7  36823669.348   193509687.6981       -266.787          38.000  
J 3  39742959.409   208850652.660         379.117          43.000  
G13  24181428.441   127074264.654        3227.783          34.000  
E12                                                                
E19                                                                
E23                                                                
E26                                                                
E29                                                                
C 7  35884295.379   144491188.1771       -326.917          46.000  
C 8  36836729.685   148326231.8381       -600.503          45.000  
C10  36123964.369   145456231.3741        -85.150          44.000  
C13  37239635.419   149948572.4921       -461.713          42.000  
C14  22202202.785    89399070.430         720.863          46.000  
G 5  22382634.890    91653156.7071       1232.561          39.000  
G 6  22630790.738    92669295.3651       -761.970          44.000  
G11  22081005.282    90418022.5291         79.072          44.000  
G12  22929420.561                        -442.017          32.000  
G17  23662670.648    96894674.3791      -2309.155          40.000  
R 2  20269636.884    84126520.591       -1379.809          45.000  
R18  22925862.831    95184310.2891       1622.986          46.000  
G25  24528726.577   100441091.602         580.710          35.000  
J 2  36248672.409   148432264.2811       -311.023          43.000  
J 4  38013781.612   155660090.2071       -758.761          44.000  
J 7  36823673.155   150786787.0021       -207.998          43.000  
R24  22413902.300    93222250.9561      -1056.665          43.000  
R17  21005664.425    87426530.4881        720.953          47.000  
R 3  20353689.011    84742682.3371       1915.528          45.000  
R 4  24053264.522   100181020.3881       3234.101          43.000  
> 2025  5 19  6  9 27.5010000  0 57                     
G 5  22382599.155   117621343.0081       1577.579          43.000  
G 6  22630804.642   118925673.3011       -981.654          44.000  
G11  22081001.878   116036444.5981         97.183          45.000  
G12  22929431.843                        -570.941          33.000  
G17  23662717.253   124348430.7121      -2967.576          42.000  
J 4  38013797.934   199763852.4241       -978.144          44.000  
C 7  35884307.216   186859006.2011       -426.441          44.000  
C 8  36836747.825   191818613.8371       -780.785          43.000  
C10  36123966.788   188106974.4481       -113.763          42.000  
C13  37239640.651   193916583.1411       -601.527          43.000  
C14  22202184.837   115612605.078         927.597          45.000  
C33  23706131.324   123444051.233        2225.465          45.000  
R 2  20269665.199   108162817.581       -1778.055          48.000  
R18  22925817.410   122379548.5631       2082.850          45.000  
R 1  23798404.828                       -4307.116          28.000  
R24  22413920.954   119857299.0841      -1363.008          44.000  
G20  21091390.267   110836001.014        -369.397          44.000  
G25  24528697.932                         741.912          33.000  
G19  21396177.514   112437669.534       -2351.344          45.000  
S37  36823670.450   193509697.415        -271.167          42.000  
S28  37641490.662   197807366.539        -268.800          42.000  
R 4  24053169.921   128803632.7071       4154.309          37.000  
R17  21005643.843   112405460.6991        923.444          46.000  
R 3  20353636.559   108954598.1931       2458.610          48.000  
E12                                                                
E19                                                                
E23                                                                
E29                                                                
J 2  36248670.670   190488043.3591       -403.113          43.000  
J 7  36823674.497   193509714.6941       -271.270          38.000  
J 3  39742952.255   208850615.038         375.176          44.000  
G13  24181367.066   127073942.150        3223.859          34.000  
E12                                                                
E19                                                                
E23                                                                
E26                                                                
E29                                                                
C 7  35884303.564   144491221.0851       -330.010          46.000  
C 8  36836744.675   148326292.1361       -603.893          45.000  
C10  36123966.531   145456240.0921        -88.031          44.000  
C13  37239646.965   149948618.9181       -465.222          42.000  
C14  22202184.938    89398998.599         717.399          46.000  
G 5  22382604.849    91653033.6791       1229.443          39.000  
G 6  22630809.433    92669371.7941       -765.147          44.000  
G11  22081003.463    90418014.8801         75.592          44.000  
G12  22929431.551                        -444.613          32.000  
G17  23662727.124    96894905.5351      -2312.425          40.000  
R 2  20269670.171    84126658.807       -1383.124          45.000  
R18  22925823.798    95184148.2221       1619.813          46.000  
G25  24528712.452   100441033.783         577.205          35.000  
J 2  36248680.082   148432295.6091       -314.154          43.000  
J 4  38013800.210   155660166.3471       -762.371          44.000  
J 7  36823678.305   150786808.0111       -211.021          43.000  
R24  22413927.789    93222356.8571      -1059.893          43.000  
R17  21005647.149    87426458.6051        718.060          48.000  
R 3  20353643.048    84742491.0161       1912.268          44.000  
R 4  24053186.966   100180697.2261       3230.866          43.000  
> 2025  5 19  6  9 27.6010000  0 57                     
G 5  22382569.127   117621185.0321       1579.391          43.000  
G 6  22630823.321   118925771.2741       -980.174          44.000  
G11  22081000.001   116036434.6501         99.009          45.000  
G12  22929442.575                        -568.883          33.000  
G17  23662773.708   124348727.2541      -2965.673          42.000  
J 4  38013816.529   199763950.0171       -976.441          44.000  
C 7  35884315.354   186859048.6771       -425.110          44.000  
C 8  36836762.758   191818691.6951       -779.102          42.000  
C10  36123968.912   188106985.6471       -112.329          42.000  
C13  37239652.173   193916643.0381       -599.696          43.000  
C14  22202166.971   115612512.072         929.529          45.000  
C33  23706088.529   123443828.492        2227.058          45.000  
R 2  20269698.498   108162995.184       -1776.475          48.000  
R18  22925778.309   122379340.0771       2084.472          45.000  
R 1  23798485.273                       -4307.926          28.000  
R24  22413946.412   119857435.1221      -1360.793          44.000  
G20  21091397.244   110836037.768        -367.975          44.000  
G25  24528683.794                         742.927          33.000  
G19  21396222.240   112437904.422       -2349.292          45.000  
S37  36823675.571   193509724.290        -269.284          41.000  
S28  37641495.733   197807393.238        -267.273          42.000  
R 4  24053092.314   128803217.1061       4155.829          37.000  
R17  21005626.550   112405368.1651        925.031          46.000  
R 3  20353590.596   108954352.1121       2460.348          48.000  
E12                                                                
E19                                                                
E23                                                                
E29                                                                
J 2  36248678.311   190488083.4771       -401.489          43.000  
J 7  36823679.596   193509741.5451       -269.121          38.000  
J 3  39742945.092   208850577.285         376.974          44.000  
G13  24181305.696   127073619.565        3225.781          34.000  
E12                                                                
E19                                                                
E23                                                                
E26                                                                
E29                                                                
C 7  35884311.707   144491253.9281       -328.654          46.000  
C 8  36836759.602   148326352.3391       -602.362          45.000  
C10  36123968.702   145456248.7481        -86.810          44.000  
C13  37239658.464   149948665.2481       -463.729          42.000  
C14  22202167.045    89398926.684         718.845          46.000  
G 5  22382574.792    91652910.5861       1230.546          39.000  
G 6  22630828.071    92669448.1271       -763.612          44.000  
G11  22081001.550    90418007.1201         77.154          44.000  
G12  22929442.382                        -443.553          32.000  
G17  23662783.558    96895136.5981      -2310.808          40.000  
R 2  20269703.464    84126796.953       -1381.790          45.000  
R18  22925784.711    95183986.0611       1621.385          46.000  
G25  24528698.277   100440975.844         579.226          35.000  
J 2  36248687.729   148432326.8641       -312.714          43.000  
J 4  38013818.743   155660242.3801       -760.543          44.000  
J 7  36823683.428   150786828.9661       -209.923          43.000  
R24  22413953.278    93222462.6791      -1058.446          43.000  
R17  21005629.830    87426386.6371        719.434          48.000  
R 3  20353597.057    84742299.6251       1913.627          44.000  
R 4  24053109.344   100180373.9771       3232.264          43.000  
> 2025  5 19  6  9 27.7010000  0 58                     
G 5  22382539.016   117621026.6981       1584.976          43.000  
G 6  22630841.893   118925868.9071       -974.791          44.000  
G11  22080998.055   116036424.3441        104.601          45.000  
G12  22929453.288                        -563.685          33.000  
G17  23662830.084   124349023.4391      -2960.280          42.000  
J 4  38013835.015   199764047.2471       -970.792          44.000  
C 7  35884323.394   186859090.8031       -419.831          44.000  
C 8  36836777.667   191818769.2061       -773.650          42.000  
C10  36123970.993   188106996.4841       -106.824          42.000  
C13  37239663.591   193916702.6091       -594.180          43.000  
C14  22202148.979   115612418.721         935.100          45.000  
C33  23706045.597   123443605.397        2232.540          45.000  
R 2  20269731.680   108163172.447       -1771.103          48.000  
R18  22925739.165   122379131.2461       2089.766          45.000  
R 1  23798566.073                       -4301.582          28.000  
R24  22413971.788   119857570.8431      -1355.593          44.000  
G20  21091404.166   110836074.183        -362.634          44.000  
G25  24528669.638                         748.279          34.000  
G19  21396266.865   112438138.968       -2343.975          45.000  
S37  36823680.606   193509750.811        -263.726          41.000  
S28  37641500.739   197807419.559        -261.548          42.000  
R 4  24053014.618   128802801.1451       4161.218          37.000  
R17  21005609.136   112405275.2991        930.212          46.000  
R 3  20353544.572   108954105.6771       2465.843          48.000  
E12                                                                
E19                                                                
E23                                                                
E29                                                                
J 2  36248685.894   190488123.2281       -396.118          43.000  
J 7  36823684.637   193509768.0731       -263.905          38.000  
J 3  39742937.852   208850539.207         382.349          44.000  
G13  24181244.220   127073296.632        3230.865          34.000  
G 9  23706109.287                       -2319.298          31.000  
E12                                                                
E19                                                                
E23                                                                
E26                                                                
E29                                                                
C 7  35884319.762   144491286.4961       -324.501          46.000  
C 8  36836774.490   148326412.2751       -598.044          45.000  
C10  36123970.775   145456257.1191        -82.465          44.000  
C13  37239669.904   149948711.3081       -459.456          42.000  
C14  22202149.113    89398854.517         722.915          46.000  
G 5  22382544.683    91652787.2251       1234.771          39.000  
G 6  22630846.660    92669524.2081       -759.557          44.000  
G11  22080999.578    90417999.1031         81.436          44.000  
G12  22929453.224                        -439.526          32.000  
G17  23662839.912    96895367.3771      -2306.487          40.000  
R 2  20269736.678    84126934.811       -1377.386          45.000  
R18  22925745.546    95183823.6331       1625.516          46.000  
G25  24528684.068   100440917.690         582.640          35.000  
J 2  36248695.272   148432357.8481       -308.612          43.000  
J 4  38013837.258   155660318.1571       -756.587          45.000  
J 7  36823688.461   150786849.6141       -205.292          43.000  
R24  22413978.643    93222568.2351      -1054.326          43.000  
R17  21005612.462    87426314.4071        723.541          48.000  
R 3  20353550.992    84742107.9521       1917.995          44.000  
R 4  24053031.648   100180050.4321       3236.835          43.000  
> 2025  5 19  6  9 27.8010000  0 58                     
G 5  22382508.941   117620868.5361       1581.558          43.000  
G 6  22630860.478   118925966.7021       -978.088          44.000  
G11  22080996.134   116036414.2191        101.145          45.000  
G12  22929464.129                        -568.042          33.000  
G17  23662886.497   124349319.7741      -2963.257          42.000  
J 4  38013853.543   199764144.6371       -973.909          44.000  
C 7  35884331.561   186859133.0801       -422.919          44.000  
C 8  36836792.585   191818846.8721       -776.763          42.000  
C10  36123973.118   188107007.4841       -110.223          42.000  
C13  37239675.068   193916762.3541       -597.700          43.000  
C14  22202131.102   115612325.567         931.431          45.000  
C33  23706002.778   123443382.463        2229.241          45.000  
R 2  20269764.964   108163349.889       -1774.573          48.000  
R18  22925700.047   122378922.5471       2086.823          45.000  
R 1  23798646.479                       -4303.443          28.000  
R24  22413997.227   119857706.7041      -1358.683          44.000  
G20  21091411.146   110836110.747        -365.820          43.000  
G25  24528655.506                         743.876          34.000  
G19  21396311.573   112438373.685       -2347.256          45.000  
S37  36823685.687   193509777.481        -266.805          41.000  
S28  37641505.785   197807446.073        -265.222          42.000  
R 4  24052936.976                        4158.069          37.000  
R17  21005591.803   112405182.5901        926.904          46.000  
R 3  20353498.570   108953859.4111       2462.540          48.000  
E12                                                                
E19                                                                
E23                                                                
E29                                                                
J 2  36248693.501   190488163.1301       -399.152          43.000  
J 7  36823689.707   193509794.7551       -266.824          38.000  
J 3  39742930.615   208850501.277         379.310          44.000  
G13  24181182.797                        3228.101          34.000  
G 9  23706153.455                       -2323.616          31.000  
E12                                                                
E19                                                                
E23                                                                
E26                                                                
E29                                                                
C 7  35884327.884   144491319.1931       -327.173          46.000  
C 8  36836789.384   148326472.3431       -600.814          45.000  
C10  36123972.932   145456265.6411        -85.400          44.000  
C13  37239681.393   149948757.4871       -462.026          42.000  
C14  22202131.230    89398782.460         720.385          46.000  
G 5  22382514.563    91652663.9701       1232.255          39.000  
G 6  22630865.265    92669600.4081       -762.239          44.000  
G11  22080997.646    90417991.2061         78.772          44.000  
G12  22929464.129                        -442.548          32.000  
G17  23662896.338    96895598.3261      -2309.854          40.000  
R 2  20269769.951    84127072.823       -1380.318          45.000  
R18  22925706.452    95183661.3171       1623.017          46.000  
G25  24528669.871   100440859.625         580.292          35.000  
J 2  36248702.822   148432388.9451       -311.212          43.000  
J 4  38013855.787   155660394.0451       -759.080          45.000  
J 7  36823693.545   150786870.4181       -208.219          43.000  
R24  22414004.027    93222673.8931      -1056.773          43.000  
R17  21005595.122    87426242.2881        720.972          48.000  
R 3  20353504.965    84741916.4061       1915.194          44.000  
R 4  24052953.971   100179727.031        3233.765          43.000  
> 2025  5 19  6  9 27.9010000  0 58                     
G 5  22382478.840   117620710.3431       1582.202          43.000  
G 6  22630879.095   118926064.4241       -976.875          44.000  
G11  22080994.190   116036404.0261        102.282          45.000  
G12  22929474.868                        -564.918          33.000  
G17  23662942.910   124349616.1011      -2963.163          42.000  
J 4  38013872.046   199764242.0031       -973.414          44.000  
C 7  35884339.716   186859175.3131       -422.015          44.000  
C 8  36836807.442   191818924.5071       -776.063          42.000  
C10  36123975.252   188107018.4431       -109.180          42.000  
C13  37239686.575   193916822.0351       -596.357          43.000  
C14  22202113.216   115612232.353         932.270          45.000  
C33  23705959.963   123443159.501        2229.962          45.000  
R 2  20269798.238   108163527.277       -1773.602          48.000  
R18  22925660.930   122378713.8051       2087.825          45.000  
R 1  23798727.810                       -4302.860          28.000  
R24  22414022.623   119857842.5451      -1358.187          44.000  
G20  21091418.083   110836147.260        -364.642          43.000  
G25  24528641.335                         746.671          34.000  
G19  21396356.223   112438608.374       -2346.843          45.000  
S37  36823690.782   193509804.128        -266.216          41.000  
S28  37641510.841   197807472.519        -263.874          42.000  
R 4  24052859.325   128801969.4891       4158.777          37.000  
R17  21005574.474   112405089.8011        928.247          46.000  
R 3  20353452.547   108953613.1171       2463.147          48.000  
E12                                                                
E19                                                                
E23                                                                
E29                                                                
J 2  36248701.089   190488203.0141       -398.663          43.000  
J 7  36823694.813   193509821.4061       -266.246          38.000  
J 3  39742923.401   208850463.313         379.935          44.000  
G13  24181121.398                        3227.826          34.000  
G 9  23706197.651                       -2320.648          31.000  
E12                                                                
E19                                                                
E23                                                                
E26                                                                
E29                                                                
C 7  35884336.019   144491351.8561       -326.386          46.000  
C 8  36836804.292   148326532.3781       -600.183          45.000  
C10  36123975.045   145456274.1061        -84.381          44.000  
C13  37239692.900   149948803.6571       -461.407          42.000  
C14  22202113.334    89398710.406         720.707          46.000  
G 5  22382484.484    91652540.7121       1232.688          39.000  
G 6  22630883.842    92669676.5601       -761.266          44.000  
G11  22080995.701    90417983.2571         79.662          44.000  
G12  22929475.054                        -440.901          33.000  
G17  23662952.749    96895829.1951      -2308.589          40.000  
R 2  20269803.178    84127210.799       -1379.494          45.000  
R18  22925667.328    95183498.9681       1623.798          46.000  
G25  24528655.654   100440801.500         581.669          35.000  
J 2  36248710.428   148432420.0261       -310.699          43.000  
J 4  38013874.311   155660469.9171       -758.491          45.000  
J 7  36823698.618   150786891.1891       -207.615          43.000  
R24  22414029.438    93222779.5671      -1056.596          43.000  
R17  21005577.792    87426170.1311        721.893          48.000  
R 3  20353458.971    84741724.8601       1915.641          44.000  
R 4  24052876.285   100179403.6001       3234.491          43.000  
> 2025  5 19  6  9 28.0010000  0 58                     
G 5  22382448.675   117620551.9481       1584.237          43.000  
G 6  22630897.646   118926161.9631       -974.942          44.000  
G11  22080992.217   116036393.6381        104.174          45.000  
G12  22929485.612                        -563.782          33.000  
G17  23662999.278   124349912.2201      -2960.825          42.000  
J 4  38013890.527   199764339.1651       -971.289          44.000  
C 7  35884347.764   186859217.3691       -420.160          44.000  
C 8  36836822.289   191819001.9441       -774.058          42.000  
C10  36123977.315   188107029.1961       -107.043          42.000  
C13  37239698.029   193916881.5241       -594.543          43.000  
C14  22202095.274   115612138.945         934.440          45.000  
C33  23705917.109   123442936.349        2231.884          45.000  
R 2  20269831.401   108163704.476       -1771.689          48.000  
R18  22925621.776   122378504.8651       2089.763          45.000  
R 1  23798808.389                       -4302.130          28.000  
R24  22414048.000   119857978.1761      -1355.879          44.000  
G20  21091424.978   110836183.594        -363.080          43.000  
G25  24528627.172                         746.840          34.000  
G19  21396400.831   112438842.862       -2344.555          45.000  
S37  36823695.812   193509830.583        -263.874          41.000  
S28  37641515.844   197807498.806        -262.367          42.000  
R 4  24052781.619   128801553.4271       4160.907          37.000  
R17  21005557.122   112404996.8351        930.023          46.000  
R 3  20353406.516   108953366.6231       2465.322          48.000  
E12                                                                
E19                                                                
E23                                                                
E29                                                                
J 2  36248708.641   190488242.7191       -396.649          43.000  
J 7  36823699.848   193509847.8471       -264.001          38.000  
J 3  39742916.128   208850425.124         382.368          44.000  
G13  24181059.924   127072328.010        3230.743          34.000  
G 9  23706241.826                       -2320.192          31.000  
E12                                                                
E19                                                                
E23                                                                
E26                                                                
E29                                                                
C 7  35884344.098   144491384.3631       -324.709          46.000  
C 8  36836819.160   148326592.2401       -598.298          45.000  
C10  36123977.104   145456282.4321        -82.977          44.000  
C13  37239704.317   149948849.6461       -459.620          42.000  
C14  22202095.381    89398638.166         722.699          46.000  
G 5  22382454.317    91652417.2761       1234.784          39.000  
G 6  22630902.377    92669752.5591       -759.586          44.000  
G11  22080993.708    90417975.1681         81.074          43.000  
G12  22929485.931                        -439.476          33.000  
G17  23663009.096    96896059.9381      -2307.135          40.000  
R 2  20269836.361    84127348.617       -1377.830          45.000  
R18  22925628.151    95183336.4611       1625.297          46.000  
G25  24528641.408   100440743.275         582.587          35.000  
J 2  36248717.970   148432450.9611       -309.076          43.000  
J 4  38013892.788   155660545.6261       -756.711          45.000  
J 7  36823703.633   150786911.7801       -205.598          43.000  
R24  22414054.825    93222885.0421      -1054.524          43.000  
R17  21005560.433    87426097.8271        723.273          48.000  
R 3  20353412.899    84741533.1451       1917.514          44.000  
R 4  24052798.572   100179080.0101       3236.322          43.000  
> 2025  5 19  6  9 28.1010000  0 58                     
G 5  22382418.571   117620393.8671       1579.191          43.000  
G 6  22630916.246   118926259.8271       -980.159          43.000  
G11  22080990.307   116036383.5601         99.395          45.000  
G12  22929496.380                        -569.964          33.000  
G17  23663055.662   124350208.6501      -2965.778          43.000  
J 4  38013909.072   199764436.6071       -975.737          44.000  
C 7  35884355.895   186859259.7131       -424.938          44.000  
C 8  36836837.243   191819079.6671       -778.558          42.000  
C10  36123979.468                        -112.140          42.000  
C13  37239709.534                        -599.175          43.000  
C14  22202077.382                         929.384          45.000  
C33  23705874.310                        2227.032          45.000  
R 2  20269864.678                       -1776.858          48.000  
R18  22925582.669   122378296.2351       2084.841          46.000  
R 1  23798889.752                       -4306.248          28.000  
R24  22414073.444                       -1361.113          44.000  
G20  21091431.959   110836220.226        -367.853          43.000  
G25  24528613.013                         744.042          34.000  
G19  21396445.511   112439077.660       -2349.505          45.000  
S37  36823700.887   193509857.322        -268.598          41.000  
S28  37641520.922                        -267.183          42.000  
R 4  24052704.004                        4155.835          37.000  
R17  21005539.814   112404904.1911        924.976          46.000  
R 3  20353360.525   108953120.4381       2460.472          47.000  
E12                                                                
E19                                                                
E23                                                                
E29                                                                
J 2  36248716.243   190488282.7081       -401.508          43.000  
J 7  36823704.897   193509874.6051       -268.802          38.000  
J 3  39742908.917   208850387.257         377.441          44.000  
G13  24180998.512                        3225.256          34.000  
G 9  23706286.063                       -2324.493          31.000  
E12                                                                
E19                                                                
E23                                                                
E26                                                                
E29                                                                
C 7  35884352.252   144491417.1071       -328.569          46.000  
C 8  36836834.092   148326652.3471       -602.163          45.000  
C10  36123979.243   145456290.988         -86.847          44.000  
C13  37239715.803   149948895.881        -463.364          42.000  
C14  22202077.503    89398566.177         718.761          47.000  
G 5  22382424.221    91652294.0891       1230.795          39.000  
G 6  22630921.002    92669828.8101       -763.720          44.000  
G11  22080991.782    90417967.2821         77.888          43.000  
G12  22929496.886                        -443.314          33.000  
G17  23663065.479    96896290.9071      -2310.728          40.000  
R 2  20269869.657    84127486.684       -1381.769          45.000  
R18  22925589.083    95183174.1911       1621.503          46.000  
G25  24528627.237   100440685.279         578.621          35.000  
J 2  36248725.584   148432482.1151       -312.817          43.000  
J 4  38013911.325   155660621.5641       -760.552          45.000  
J 7  36823708.755   150786932.6101       -209.297          43.000  
R24  22414080.243    93222990.777       -1058.581          43.000  
R17  21005543.132    87426025.7611        719.519          48.000  
R 3  20353366.874    84741341.6581       1913.778          44.000  
R 4  24052720.927   100178756.660        3232.312          43.000  
> 2025  5 19  6  9 28.2010000  0 58                     
G 5  22382388.535                        1580.828          43.000  
G 6  22630934.877                        -978.265          43.000  
G11  22080988.420                         100.987          45.000  
G12  22929507.128                        -567.803          33.000  
G17  23663112.078                       -2964.037          43.000  
J 4  38013927.613                        -974.594          44.000  
C 7  35884364.033                        -423.377          44.000  
C 8  36836852.190                        -777.197          42.000  
C10  36123981.559                        -110.474          42.000  
C13  37239721.008                        -597.911          43.000  
C14  22202059.499                         931.082          45.000  
C33  23705831.474                        2228.958          45.000  
R 2  20269897.983                       -1775.104          48.000  
R18  22925543.565                        2086.243          46.000  
R 1  23798970.266                       -4303.625          28.000  
R24  22414098.895                       -1359.357          44.000  
G20  21091438.929                        -366.107          43.000  
G25  24528598.953                         744.590          34.000  
G19  21396490.188                       -2347.893          45.000  
S37  36823705.980                        -267.807          41.000  
S28  37641525.991                        -265.647          42.000  
R 4  24052626.390                        4157.959          37.000  
R17  21005522.479                         926.978          46.000  
R 3  20353314.589                        2461.775          47.000  
E12                                                                
E19                                                                
E23                                                                
E29                                                                
J 2  36248723.851                        -399.622          43.000  
J 7  36823710.004   193509901.3591       -267.650          38.000  
J 3  39742901.744                         378.774          44.000  
G13  24180937.106                        3227.173          34.000  
G 9  23706330.301                       -2322.514          31.000  
E12                                                                
E19                                                                
E23                                                                
E26                                                                
E29                                                                
C 7  35884360.416   144491449.860        -327.431          46.000  
C 8  36836849.027   148326712.492        -601.497          45.000  
C10  36123981.375   145456299.545         -85.461          44.000  
C13  37239727.291   149948942.136        -462.350          42.000  
C14  22202059.630    89398494.212         719.625          47.000  
G 5  22382394.148    91652170.912        1231.864          39.000  
G 6  22630939.637    92669905.052        -762.283          44.000  
G11  22080989.925    90417959.465          78.254          43.000  
G12  22929507.802                        -443.389          33.000  
G17  23663121.864    96896521.862       -2309.138          40.000  
R 2  20269902.928    84127624.775       -1380.864          45.000  
R18  22925550.008    95183011.941        1622.592          45.000  
G25  24528613.070                         579.910          35.000  
J 2  36248733.182   148432513.279        -311.481          43.000  
J 4  38013929.874   155660697.513        -759.363          45.000  
J 7  36823713.929   150786953.4751       -208.529          43.000  
R24  22414105.691    93223096.515       -1057.378          43.000  
R17  21005525.806    87425953.698         720.807          48.000  
R 3  20353320.909    84741150.209        1914.641          44.000  
R 4  24052643.301   100178433.310        3233.728          43.000  
> 2025  5 19  6  9 28.3010000  0 58                     
G 5  22382358.382                        1584.636          43.000  
G 6  22630953.433   118926455.2011       -974.645          43.000  
G11  22080986.434   116036363.1161        104.554          45.000  
G12  22929517.829                        -564.417          33.000  
G17  23663168.443                       -2960.048          43.000  
J 4  38013946.108                        -970.815          44.000  
C 7  35884372.072                        -419.857          44.000  
C 8  36836867.048                        -773.710          42.000  
C10  36123983.578                        -107.043          42.000  
C13  37239732.386                        -594.161          43.000  
C14  22202041.555                         934.637          45.000  
C33  23705788.604                        2232.119          45.000  
R 2  20269931.160                       -1771.651          48.000  
R18  22925504.415                        2090.204          46.000  
R 1  23799051.003                       -4301.709          28.000  
R24  22414124.276                       -1355.442          44.000  
G20  21091445.825                        -362.854          43.000  
G25  24528584.757                         747.884          34.000  
G19  21396534.804   112439546.943       -2343.920          45.000  
S37  36823711.000                        -263.375          41.000  
S28  37641530.992                        -261.856          42.000  
R 4  24052548.692                        4161.365          37.000  
R17  21005505.098                         930.310          46.000  
R 3  20353268.545                        2465.668          47.000  
E12                                                                
E19                                                                
E23                                                                
E29                                                                
J 2  36248731.405                        -396.002          43.000  
J 7  36823715.028   193509927.7821       -263.370          38.000  
J 3  39742894.466   208850311.212         382.642          44.000  
G13  24180875.605                        3230.780          34.000  
G 9  23706374.544                       -2320.446          31.000  
E12                                                                
E19                                                                
E23                                                                
E26                                                                
E29                                                                
C 7  35884368.455   144491482.377        -324.505          46.000  
C 8  36836863.883   148326772.350        -598.046          45.000  
C10  36123983.445   145456307.878         -82.642          44.000  
C13  37239738.676   149948988.134        -459.615          42.000  
C14  22202041.689    89398421.982         722.856          47.000  
G 5  22382364.023    91652047.507        1234.740          39.000  
G 6  22630958.156    92669981.0591       -759.489          44.000  
G11  22080987.949    90417951.3671         81.669          43.000  
G12  22929518.610                        -439.554          33.000  
G17  23663178.235    96896752.639       -2307.154          40.000  
R 2  20269936.160    84127762.614       -1377.832          45.000  
R18  22925510.843    95182849.425        1625.826          45.000  
G25  24528598.822                         582.526          35.000  
J 2  36248740.695   148432544.188        -308.398          43.000  
J 4  38013948.370   155660773.230        -756.575          45.000  
J 7  36823718.937   150786974.0621       -205.267          43.000  
R24  22414131.084    93223201.997       -1054.236          43.000  
R17  21005508.431    87425881.388         723.798          48.000  
R 3  20353274.838    84740958.497        1917.785          44.000  
R 4  24052565.577   100178109.699        3236.865          44.000  
> 2025  5 19  6  9 28.4010000  0 58                     
G 5  22382328.259                        1580.117          43.000  
G 6  22630972.016                        -978.577          43.000  
G11  22080984.518                         100.512          45.000  
G12  22929528.596                        -568.437          33.000  
G17  23663224.855                       -2964.801          43.000  
J 4  38013964.598                        -975.120          44.000  
C 7  35884380.233                        -423.757          44.000  
C 8  36836881.964                        -777.714          42.000  
C10  36123985.698                        -111.176          42.000  
C13  37239743.906                        -598.491          43.000  
C14  22202023.684                         930.484          45.000  
C33  23705745.795                        2227.858          45.000  
R 2  20269964.449                       -1775.721          48.000  
R18  22925465.299                        2085.965          46.000  
R 1  23799131.582                       -4302.894          28.000  
R24  22414149.675                       -1359.766          44.000  
G20  21091452.780                        -367.053          43.000  
G25  24528570.688                         744.370          34.000  
G19  21396579.466                       -2348.233          45.000  
S37  36823716.087                        -267.695          41.000  
S28  37641536.002                        -266.185          42.000  
R 4  24052471.035                        4156.623          37.000  
R17  21005487.761                         926.062          46.000  
R 3  20353222.560                        2461.150          47.000  
E12                                                                
E19                                                                
E23                                                                
E29                                                                
J 2  36248739.013                        -400.208          43.000  
J 7  36823720.088                        -267.408          38.000  
J 3  39742887.279                         378.595          44.000  
G13  24180814.159                        3226.794          34.000  
G 9  23706418.815                       -2322.890          31.000  
E12                                                                
E19                                                                
E23                                                                
E26                                                                
E29                                                                
C 7  35884376.586   144491515.074        -327.781          46.000  
C 8  36836878.774   148326832.420        -601.254          45.000  
C10  36123985.582   145456316.400         -86.127          44.000  
C13  37239750.161   149949034.337        -462.738          42.000  
C14  22202023.819    89398349.967         719.360          47.000  
G 5  22382333.934    91651924.300        1231.240          39.000  
G 6  22630976.739    92670057.239        -762.547          44.000  
G11  22080985.971    90417943.470          78.292          43.000  
G12  22929529.506                        -442.528          33.000  
G17  23663234.629    96896983.546       -2309.810          40.000  
R 2  20269969.464    84127900.647       -1381.068          45.000  
R18  22925471.785    95182687.116        1622.231          45.000  
G25  24528584.603                         580.015          35.000  
J 2  36248748.278   148432575.302        -312.030          43.000  
J 4  38013966.903   155660849.111        -759.619          45.000  
J 7  36823724.011   150786994.865        -208.821          43.000  
R24  22414156.497    93223307.674       -1057.438          43.000  
R17  21005491.118    87425809.286         720.251          48.000  
R 3  20353228.807    84740767.003        1914.068          44.000  
R 4  24052487.946                        3232.685          44.000  
> 2025  5 19  6  9 28.5010000  0 58                     
G 5  22382298.195                        1581.483          43.000  
G 6  22630990.666                        -977.358          43.000  
G11  22080982.594                         101.807          45.000  
G12  22929539.360                        -567.258          33.000  
G17  23663281.285                       -2963.521          43.000  
J 4  38013983.141                        -973.697          44.000  
C 7  35884388.363                        -422.931          44.000  
C 8  36836896.872                        -776.702          42.000  
C10  36123987.805                        -109.705          42.000  
C13  37239755.397                        -597.461          43.000  
C14  22202005.772                         931.553          45.000  
C33  23705702.964                        2229.098          45.000  
R 2  20269997.716                       -1774.545          48.000  
R18  22925426.178                        2087.684          46.000  
R 1  23799212.816                       -4304.846          28.000  
R24  22414175.088                       -1358.395          44.000  
G20  21091459.750                        -365.704          43.000  
G25  24528556.635                         745.810          34.000  
G19  21396624.175                       -2347.644          45.000  
S37  36823721.171                        -266.756          41.000  
S28  37641541.071                        -265.082          42.000  
R 4  24052393.412                        4158.197          37.000  
R17  21005470.479                         927.887          46.000  
R 3  20353176.598                        2462.302          47.000  
E12                                                                
E19                                                                
E23                                                                
E29                                                                
J 2  36248746.592                        -399.243          43.000  
J 7  36823725.193                        -266.656          38.000  
J 3  39742880.095                         379.539          44.000  
G13  24180752.747                        3227.142          34.000  
G 9  23706463.085                       -2322.411          31.000  
E12                                                                
E19                                                                
E23                                                                
E26                                                                
E29                                                                
C 7  35884384.743   144491547.793        -326.861          46.000  
C 8  36836893.727   148326892.522        -600.715          45.000  
C10  36123987.688   145456324.918         -84.760          44.000  
C13  37239761.651   149949080.581        -462.224          42.000  
C14  22202005.960    89398277.980         720.188          47.000  
G 5  22382303.877                        1232.282          39.000  
G 6  22630995.329    92670133.436        -761.592          44.000  
G11  22080984.067    90417935.569          79.363          43.000  
G12  22929540.420                        -442.346          33.000  
G17  23663291.056                       -2309.239          40.000  
R 2  20270002.754    84128038.709       -1380.350          45.000  
R18  22925432.670    95182524.799        1623.524          45.000  
G25  24528570.406                         581.127          35.000  
J 2  36248755.877   148432606.457        -311.316          43.000  
J 4  38013985.467   155660925.038        -758.971          45.000  
J 7  36823729.119   150787015.694        -208.120          43.000  
R24  22414181.919    93223413.392       -1056.997          43.000  
R17  21005473.796    87425737.160         721.667          48.000  
R 3  20353182.818    84740575.539        1914.864          44.000  
R 4  24052410.298                        3234.119          44.000  
> 2025  5 19  6  9 28.6010000  0 58                     
G 5  22382268.080                        1581.270          43.000  
G 6  22631009.253                        -977.982          43.000  
G11  22080980.664                         101.184          45.000  
G12  22929550.100                        -567.777          33.000  
G17  23663337.659                       -2963.501          43.000  
J 4  38014001.659                        -973.843          44.000  
C 7  35884396.455                        -422.853          44.000  
C 8  36836911.791                        -776.986          42.000  
C10  36123989.923                        -110.181          43.000  
C13  37239766.853                        -597.143          44.000  
C14  22201987.850                         931.497          45.000  
C33  23705660.136                        2229.216          45.000  
R 2  20270030.969                       -1774.963          48.000  
R18  22925387.095                        2086.717          46.000  
R 1  23799294.415                       -4305.037          28.000  
R24  22414200.515                       -1358.717          44.000  
G20  21091466.685                        -366.278          43.000  
G25  24528542.511                         743.111          35.000  
G19  21396668.814                       -2347.075          45.000  
S37  36823726.210                        -266.505          41.000  
S28  37641546.080                        -264.841          42.000  
R 4  24052315.783                        4157.910          37.000  
R17  21005453.139                         926.990          46.000  
R 3  20353130.642                        2462.245          47.000  
E12                                                                
E19                                                                
E23                                                                
E29                                                                
J 2  36248754.180                        -398.840          43.000  
J 7  36823730.278                        -266.647          38.000  
J 3  39742872.875                         379.348          44.000  
G13  24180691.278                        3228.357          34.000  
G 9  23706507.280                       -2323.009          31.000  
E12                                                                
E19                                                                
E23                                                                
E26                                                                
E29                                                                
C 7  35884392.850   144491580.472        -326.931          46.000  
C 8  36836908.630   148326952.554        -600.576          45.000  
C10  36123989.823   145456333.420         -85.315          44.000  
C13  37239773.113   149949126.737        -461.722          42.000  
C14  22201988.059    89398205.935         720.306          47.000  
G 5  22382273.795    91651677.857        1232.603          39.000  
G 6  22631013.958    92670209.610        -761.911          44.000  
G11  22080982.107    90417927.653          79.062          43.000  
G12  22929551.340                        -442.023          33.000  
G17  23663347.447    96897445.404       -2308.848          39.000  
R 2  20270036.008    84128176.730       -1380.403          45.000  
R18  22925393.537    95182362.453        1623.293          45.000  
G25  24528556.223                         579.571          35.000  
J 2  36248763.437   148432637.534        -310.840          43.000  
J 4  38014003.978   155661000.886        -758.618          45.000  
J 7  36823734.151   150787036.442        -207.667          43.000  
R24  22414207.351    93223519.030       -1056.530          43.000  
R17  21005456.455    87425665.034         721.051          48.000  
R 3  20353136.813    84740383.999        1915.297          44.000  
R 4  24052332.632                        3234.333          44.000  
> 2025  5 19  6  9 28.7010000  0 58                     
G 5  22382238.017                        1579.721          43.000  
G 6  22631027.864   118926846.3831       -978.991          43.000  
G11  22080978.765   116036322.6471        100.041          45.000  
G12  22929560.913                        -569.078          32.000  
G17  23663394.098                       -2964.876          43.000  
J 4  38014020.229   199765020.9021       -975.276          44.000  
C 7  35884404.588   186859513.3671       -424.113          44.000  
C 8  36836926.705   191819545.6871       -778.168          42.000  
C10  36123992.069   188107106.2541       -111.304          43.000  
C13  37239778.340                        -599.066          44.000  
C14  22201969.983                         929.935          45.000  
C33  23705617.344                        2227.693          45.000  
R 2  20270064.270   108164946.781       -1776.268          48.000  
R18  22925347.972   122377043.9701       2085.568          46.000  
R 1  23799375.261                       -4304.433          28.000  
R24  22414225.954                       -1359.999          45.000  
G20  21091473.657   110836439.679        -367.218          43.000  
G25  24528528.405                         743.803          35.000  
G19  21396713.533   112440486.019       -2348.732          45.000  
S37  36823731.315                        -268.118          41.000  
S28  37641551.143                        -266.429          42.000  
R 4  24052238.142                        4157.050          37.000  
R17  21005435.806   112404347.7651        925.897          46.000  
R 3  20353084.667   108951643.0211       2460.775          47.000  
E12                                                                
E19                                                                
E23                                                                
E29                                                                
J 2  36248761.795   190488522.1201       -400.305          43.000  
J 7  36823735.367                        -268.322          38.000  
J 3  39742865.665   208850159.529         378.269          44.000  
G13  24180629.843                        3227.032          34.000  
G 9  23706551.466                       -2323.717          31.000  
E12                                                                
E19                                                                
E23                                                                
E26                                                                
E29                                                                
C 7  35884400.997   144491613.2531       -328.158          46.000  
C 8  36836923.564   148327012.7101       -602.032          45.000  
C10  36123991.969   145456342.0181        -86.322          44.000  
C13  37239784.601   149949172.999        -462.990          42.000  
C14  22201970.165    89398133.993         719.086          47.000  
G 5  22382243.727    91651554.733        1230.906          39.000  
G 6  22631032.579    92670285.8761       -763.052          44.000  
G11  22080980.164    90417919.8381         77.783          43.000  
G12  22929562.315                        -443.546          33.000  
G17  23663403.870    96897676.410       -2310.302          39.000  
R 2  20270069.327    84128314.869       -1381.729          45.000  
R18  22925354.432    95182200.2281       1621.813          45.000  
G25  24528542.056   100440337.002         579.656          35.000  
J 2  36248771.036   148432668.6841       -311.816          43.000  
J 4  38014022.553   155661076.8531       -759.979          45.000  
J 7  36823739.260   150787057.305        -208.856          43.000  
R24  22414232.823    93223624.778       -1057.727          43.000  
R17  21005439.137    87425592.9891        720.081          48.000  
R 3  20353090.833    84740192.5761       1913.843          44.000  
R 4  24052254.971   100176816.159        3233.069          44.000  
> 2025  5 19  6  9 28.8010000  0 58                     
G 5  22382207.943   117619286.9051       1580.983          43.000  
G 6  22631046.489   118926944.1781       -978.126          43.000  
G11  22080976.801   116036312.5291        101.032          45.000  
G12  22929571.630                        -567.624          32.000  
G17  23663450.509   124352283.0501      -2963.448          43.000  
J 4  38014038.731   199765118.3031       -974.018          44.000  
C 7  35884412.703   186859555.6921       -423.264          44.000  
C 8  36836941.610   191819623.3891       -777.107          42.000  
C10  36123994.209   188107117.2891       -110.419          43.000  
C13  37239789.827   193917359.4601       -597.679          44.000  
C14  22201952.092   115611393.812         931.221          45.000  
C33  23705574.521   123441153.107        2228.750          45.000  
R 2  20270097.577   108165124.301       -1775.325          48.000  
R18  22925308.856   122376835.2971       2086.638          46.000  
R 1  23799456.029                       -4304.322          28.000  
R24  22414251.331   119859065.1431      -1358.672          45.000  
G20  21091480.608   110836476.325        -366.547          43.000  
G25  24528514.257                         743.885          35.000  
G19  21396758.193   112440720.772       -2347.555          45.000  
S37  36823736.398   193510044.020        -266.821          41.000  
S28  37641556.171   197807710.874        -265.443          42.000  
R 4  24052160.465                        4158.026          37.000  
R17  21005418.500   112404255.0701        926.868          47.000  
R 3  20353038.678   108951396.8341       2461.838          47.000  
E12                                                                
E19                                                                
E23                                                                
E29                                                                
J 2  36248769.340   190488562.0461       -399.353          43.000  
J 7  36823740.494   193510061.2961       -266.686          38.000  
J 3  39742858.451   208850121.598         379.320          44.000  
G13  24180568.417                        3228.021          34.000  
G 9  23706595.684                       -2323.130          31.000  
E12                                                                
E19                                                                
E23                                                                
E26                                                                
E29                                                                
C 7  35884409.130   144491645.9651       -327.232          46.000  
C 8  36836938.474   148327072.7921       -600.911          45.000  
C10  36123994.070   145456350.5511        -85.474          44.000  
C13  37239796.091   149949219.2271       -462.407          42.000  
C14  22201952.287    89398061.987         720.078          47.000  
G 5  22382213.608    91651431.5551       1231.565          39.000  
G 6  22631051.176    92670362.0761       -762.073          44.000  
G11  22080978.223    90417911.9531         78.750          43.000  
G12  22929573.248                        -442.862          33.000  
G17  23663460.249    96897907.3321      -2309.146          39.000  
R 2  20270102.597    84128452.943       -1380.778          45.000  
R18  22925315.342    95182037.9181       1623.057          45.000  
G25  24528527.871   100440279.004         579.969          35.000  
J 2  36248778.595   148432699.8051       -311.298          43.000  
J 4  38014041.052   155661152.7491       -758.985          45.000  
J 7  36823744.350   150787078.0831       -207.773          43.000  
R24  22414258.235    93223730.4681      -1056.979          43.000  
R17  21005421.803    87425520.8941        720.892          48.000  
R 3  20353044.820    84740001.1051       1914.660          44.000  
R 4  24052177.316   100176492.748        3234.070          44.000  
> 2025  5 19  6  9 28.9010000  0 58                     
G 5  22382177.879   117619128.9471       1579.183          43.000  
G 6  22631065.151   118927042.1001       -979.811          43.000  
G11  22080974.892   116036302.5511         99.207          45.000  
G12  22929582.427                        -570.066          32.000  
G17  23663506.959   124352579.5691      -2965.678          43.000  
J 4  38014057.322   199765215.8471       -975.901          44.000  
C 7  35884420.883   186859598.1201       -424.613          44.000  
C 8  36836956.536   191819701.2251       -778.744          42.000  
C10  36123996.393   188107128.4581       -112.122          43.000  
C13  37239801.347   193917419.3531       -599.375          44.000  
C14  22201934.250   115611300.845         929.204          45.000  
C33  23705531.732   123440930.353        2227.025          45.000  
R 2  20270130.911   108165301.973       -1777.257          48.000  
R18  22925269.760   122376626.7551       2084.885          46.000  
R 1  23799537.469                       -4305.261          28.000  
R24  22414276.780   119859201.1911      -1361.127          45.000  
G20  21091487.573   110836513.066        -367.969          43.000  
G25  24528500.172                         742.837          35.000  
G19  21396802.907   112440955.668       -2349.504          45.000  
S37  36823741.529   193510070.831        -268.510          41.000  
S28  37641561.232   197807737.503        -266.672          42.000  
R 4  24052082.829                        4156.305          37.000  
R17  21005401.221   112404162.5121        925.098          47.000  
R 3  20352992.714   108951150.7761       2460.106          47.000  
E12                                                                
E19                                                                
E23                                                                
E29                                                                
J 2  36248776.964   190488602.1131       -401.141          43.000  
J 7  36823745.638   193510088.1031       -268.563          38.000  
J 3  39742851.242   208850083.805         377.455          44.000  
G13  24180507.039                        3226.105          33.000  
G 9  23706639.946                       -2325.467          31.000  
E12                                                                
E19                                                                
E23                                                                
E26                                                                
E29                                                                
C 7  35884417.275   144491678.7831       -328.531          46.000  
C 8  36836953.437   148327132.9681       -602.107          45.000  
C10  36123996.217   145456359.1791        -86.749          44.000  
C13  37239807.587   149949265.5291       -463.287          42.000  
C14  22201934.437    89397990.096         718.561          47.000  
G 5  22382183.547    91651308.4461       1230.627          39.000  
G 6  22631069.829    92670438.3761       -763.444          44.000  
G11  22080976.325    90417904.1691         77.417          43.000  
G12  22929584.188                        -444.143          33.000  
G17  23663516.720    96898138.3851      -2310.923          39.000  
R 2  20270135.906    84128591.123       -1382.260          45.000  
R18  22925276.263    95181875.7191       1621.628          45.000  
G25  24528513.700   100440221.129         578.323          35.000  
J 2  36248786.178   148432731.0101       -312.463          43.000  
J 4  38014059.614   155661228.7441       -760.376          45.000  
J 7  36823749.416   150787098.9921       -209.414          43.000  
R24  22414283.717    93223836.2681      -1058.487          43.000  
R17  21005404.536    87425448.9091        719.354          48.000  
R 3  20352998.838    84739809.7221       1913.435          44.000  
R 4  24052099.705   100176169.458        3232.556          44.000  
> 2025  5 19  6  9 29.0010000  0 58                     
G 5  22382147.831   117618971.0001       1579.378          43.000  
G 6  22631083.809   118927140.0621       -979.653          43.000  
G11  22080972.986   116036292.6111         99.266          45.000  
G12  22929593.293                1       -568.964          32.000  
G17  23663563.382   124352876.1121      -2965.492          43.000  
J 4  38014075.886   199765313.4171       -975.773          44.000  
C 7  35884429.044   186859640.5851       -424.684          44.000  
C 8  36836971.490   191819779.0931       -778.871          42.000  
C10  36123998.577   188107139.6431       -111.804          42.000  
C13  37239812.868   193917479.2611       -599.146          44.000  
C14  22201916.421   115611207.893         929.373          45.000  
C33  23705488.956   123440707.621        2227.320          45.000  
R 2  20270164.224   108165479.686       -1777.206          48.000  
R18  22925230.716   122376418.2571       2084.919          46.000  
R 1  23799618.982                       -4306.743          28.000  
R24  22414302.222   119859337.2751      -1361.046          45.000  
G20  21091494.574   110836549.855        -367.865          43.000  
G25  24528486.144                         742.051          35.000  
G19  21396847.626   112441190.618       -2349.727          45.000  
S37  36823746.661   193510097.668        -268.150          42.000  
S28  37641566.323   197807764.174        -266.637          42.000  
R 4  24052005.225   128797395.6661       4156.403          37.000  
R17  21005383.946   112404069.9981        925.134          47.000  
R 3  20352946.760   108950904.7731       2459.897          47.000  
E12                                                                
E19                                                                
E23                                                                
E29                                                                
J 2  36248784.610   190488642.1861       -400.769          43.000  
J 7  36823750.782   193510114.9781       -268.789          38.000  
J 3  39742844.072   208850046.049         377.435          44.000  
G13  24180445.627   127069100.348        3226.044          33.000  
G 9  23706684.210                       -2325.822          31.000  
E12                                                                
E19                                                                
E23                                                                
E26                                                                
E29                                                                
C 7  35884425.446   144491711.6191       -328.394          46.000  
C 8  36836968.374   148327193.1911       -602.362          45.000  
C10  36123998.383   145456367.8271        -86.530          44.000  
C13  37239819.118   149949311.8661       -463.453          42.000  
C14  22201916.604    89397918.222         718.739          47.000  
G 5  22382153.450    91651185.3751       1230.657          39.000  
G 6  22631088.505    92670514.7251       -763.506          44.000  
G11  22080974.447    90417896.4251         77.330          43.000  
G12  22929595.183    93892863.7661       -443.670          33.000  
G17  23663573.148    96898369.4521      -2310.781          39.000  
R 2  20270169.184    84128729.354       -1382.371          45.000  
R18  22925237.174    95181713.5561       1621.597          45.000  
G25  24528499.523   100440163.241         578.978          35.000  
J 2  36248793.806   148432762.2351       -312.225          42.000  
J 4  38014078.210   155661304.7871       -760.474          45.000  
J 7  36823754.559   150787119.9141       -209.358          43.000  
R24  22414309.202    93223942.1081      -1058.367          43.000  
R17  21005387.228    87425376.9511        719.574          48.000  
R 3  20352952.862    84739618.3731       1913.424          44.000  
R 4  24052022.092   100175846.1861       3232.654          44.000  
> 2025  5 19  6  9 29.1010000  0 58                     
G 5  22382117.723   117618812.8631       1581.868          43.000  
G 6  22631102.418   118927237.8021       -976.703          43.000  
G11  22080971.035   116036282.4281        102.505          45.000  
G12  22929604.068                        -567.461          32.000  
G17  23663619.799   124353172.4501      -2962.834          43.000  
J 4  38014094.386   199765410.7701       -972.835          44.000  
C 7  35884437.198   186859682.8551       -422.134          44.000  
C 8  36836986.364   191819856.7201       -775.638          42.000  
C10  36124000.666   188107150.6231       -109.076          43.000  
C13  37239824.315   193917538.9581       -596.380          44.000  
C14  22201898.512   115611114.731         932.285          45.000  
C33  23705446.162   123440484.696        2229.838          45.000  
R 2  20270197.471   108165657.180       -1774.272          48.000  
R18  22925191.586   122376209.5071       2088.174          46.000  
R 1  23799700.130                       -4304.859          29.000  
R24  22414327.637   119859473.1291      -1357.836          45.000  
G20  21091501.525   110836586.432        -364.972          43.000  
G25  24528471.970                         745.439          35.000  
G19  21396892.303   112441425.334       -2346.599          45.000  
S37  36823751.722   193510124.326        -266.037          42.000  
S28  37641571.379   197807790.638        -263.986          42.000  
R 4  24051927.548   128796979.824        4159.088          37.000  
R17  21005366.588   112403977.2391        928.296          47.000  
R 3  20352900.742   108950658.5421       2462.973          47.000  
E12                                                                
E19                                                                
E23                                                                
E29                                                                
J 2  36248792.211   190488682.0721       -398.248          43.000  
J 7  36823755.853   193510141.5761       -265.465          38.000  
J 3  39742836.803   208850008.061         380.471          44.000  
G13  24180384.178   127068777.498        3229.205          33.000  
G22  25078408.919                       -3302.713          27.000  
G 9  23706728.450                       -2320.853          31.000  
E12                                                                
E19                                                                
E23                                                                
E26                                                                
E29                                                                
C 7  35884433.538   144491744.3011       -326.311          46.000  
C 8  36836983.289   148327253.2241       -599.938          45.000  
C10  36124000.491   145456376.3221        -84.467          44.000  
C13  37239830.566   149949358.0181       -460.970          42.000  
C14  22201898.694    89397846.184         720.791          47.000  
G 5  22382123.336    91651062.1501       1232.726          39.000  
G 6  22631107.099    92670590.8831       -761.162          44.000  
G11  22080972.544    90417888.5031         79.768          43.000  
G12  22929606.027    93892907.991        -442.006          33.000  
G17  23663629.526    96898600.3681      -2308.689          39.000  
R 2  20270202.430    84128867.392       -1379.867          45.000  
R18  22925198.041    95181551.1941       1624.208          45.000  
G25  24528485.357   100440105.203         581.276          35.000  
J 2  36248801.379   148432793.3131       -310.187          42.000  
J 4  38014096.710   155661380.6411       -757.858          45.000  
J 7  36823759.596   150787140.6591       -206.969          43.000  
R24  22414334.575    93224047.7751      -1056.125          43.000  
R17  21005369.838    87425304.8101        722.058          48.000  
R 3  20352906.854    84739426.8641       1915.658          44.000  
> 2025  5 19  6  9 29.2010000  0 58                     
G 5  22382087.613   117618654.6411       1582.696          43.000  
G 6  22631121.013   118927335.4701       -976.200          43.000  
G11  22080969.102   116036272.1761        103.010          45.000  
G12  22929614.827                        -566.555          32.000  
G17  23663676.204   124353468.7101      -2962.122          43.000  
J 4  38014112.915   199765508.0501       -972.374          44.000  
C 7  35884445.301   186859725.0291       -421.355          44.000  
C 8  36837001.292   191819934.3151       -775.592          42.000  
C10  36124002.719   188107161.5391       -108.734          43.000  
C13  37239835.787   193917598.6081       -596.122          44.000  
C14  22201880.649   115611021.530         932.332          45.000  
C33  23705403.288   123440261.717        2230.182          45.000  
R 2  20270230.691   108165834.604       -1773.839          48.000  
R18  22925152.436   122376000.6921       2088.595          46.000  
R 1  23799780.889                       -4302.213          29.000  
R24  22414352.992   119859608.8921      -1357.204          45.000  
G20  21091508.467   110836622.947        -364.740          43.000  
G25  24528457.794                         746.089          35.000  
G19  21396936.966   112441659.983       -2346.030          45.000  
S37  36823756.806   193510150.896        -265.295          41.000  
S28  37641576.411   197807817.035        -263.638          42.000  
R 4  24051849.864   128796563.922        4159.399          36.000  
R17  21005349.268   112403884.4291        928.455          47.000  
R 3  20352854.722   108950412.2541       2463.389          47.000  
E12                                                                
E19                                                                
E23                                                                
E29                                                                
J 2  36248799.798   190488721.8891       -397.791          43.000  
J 7  36823760.919   193510168.1631       -265.492          38.000  
J 3  39742829.584   208849969.990         381.134          44.000  
G13  24180322.723   127068454.578        3229.675          33.000  
G22  25078474.412                       -3302.713          27.000  
G 9  23706772.659                       -2322.033          31.000  
E12                                                                
E19                                                                
E23                                                                
E26                                                                
E29                                                                
C 7  35884441.650   144491776.9211       -325.892          46.000  
C 8  36836998.166   148327313.2201       -599.614          45.000  
C10  36124002.583   145456384.7671        -84.192          44.000  
C13  37239842.009   149949404.1531       -461.053          42.000  
C14  22201880.802    89397774.115         720.946          47.000  
G 5  22382093.236    91650938.8581       1233.350          39.000  
G 6  22631125.676    92670666.9941       -760.848          44.000  
G11  22080970.575    90417880.5101         80.255          43.000  
G12  22929616.926    93892952.157        -441.316          33.000  
G17  23663685.899    96898831.2251      -2308.291          39.000  
R 2  20270235.657    84129005.404       -1379.829          45.000  
R18  22925158.908    95181388.7891       1624.404          45.000  
G25  24528471.163   100440047.127         581.264          35.000  
J 2  36248808.952   148432824.3451       -309.955          42.000  
J 4  38014115.190   155661456.4521       -757.750          45.000  
J 7  36823764.645   150787161.3661       -206.749          43.000  
R24  22414359.944    93224153.3821      -1055.693          43.000  
R17  21005352.464    87425232.6181        722.241          48.000  
R 3  20352860.856    84739235.3171       1915.803          44.000  
> 2025  5 19  6  9 29.3010000  0 58                     
G 5  22382057.550   117618496.5061       1581.521          43.000  
G 6  22631139.632   118927433.2081       -977.260          43.000  
G11  22080967.163   116036262.0071        101.834          45.000  
G12  22929625.531                        -566.892          32.000  
G17  23663732.597   124353765.0271      -2963.022          43.000  
J 4  38014131.437   199765605.4071       -973.468          44.000  
C 7  35884453.441   186859767.2861       -422.439          44.000  
C 8  36837016.221   191820011.9611       -776.387          42.000  
C10  36124004.767   188107172.5101       -109.497          43.000  
C13  37239847.286   193917658.3081       -596.891          44.000  
C14  22201862.819   115610928.377         931.745          45.000  
C33  23705360.456   123440038.797        2229.319          45.000  
R 2  20270263.962   108166012.101       -1774.854          48.000  
R18  22925113.333   122375791.9381       2087.649          46.000  
R 1  23799862.188                       -4301.932          29.000  
R24  22414378.410   119859744.7441      -1358.462          45.000  
G20  21091515.406   110836659.513        -365.594          43.000  
G25  24528443.656   128897880.9311        744.760          35.000  
G19  21396981.647   112441894.725       -2347.286          45.000  
S37  36823761.862   193510177.501        -265.858          42.000  
S28  37641581.414   197807843.481        -264.271          42.000  
R 4  24051772.225   128796148.063        4158.746          36.000  
R17  21005331.986   112403791.6581        927.887          47.000  
R 3  20352808.745   108950166.0421       2462.228          47.000  
E12                                                                
E19                                                                
E23                                                                
E29                                                                
J 2  36248807.390   190488761.7531       -398.590          43.000  
J 7  36823766.018   193510194.8141       -266.354          38.000  
J 3  39742822.369   208849931.997         380.098          44.000  
G13  24180261.299   127068131.734        3228.589          33.000  
G22  25078536.037                       -3302.713          27.000  
G 9  23706816.845                       -2322.019          31.000  
E12                                                                
E19                                                                
E23                                                                
E26                                                                
E29                                                                
C 7  35884449.770   144491809.5861       -326.384          46.000  
C 8  36837013.093   148327373.2531       -600.300          45.000  
C10  36124004.721   145456393.2391        -84.546          44.000  
C13  37239853.483   149949450.3191       -461.560          42.000  
C14  22201862.920    89397702.083         720.329          47.000  
G 5  22382063.160    91650815.6381       1232.340          39.000  
G 6  22631144.279    92670743.1381       -761.351          44.000  
G11  22080968.639    90417872.5771         79.379          43.000  
G12  22929627.919    93892996.359        -441.984          33.000  
G17  23663742.276    96899062.0991      -2308.486          39.000  
R 2  20270268.929    84129143.458       -1380.448          45.000  
R18  22925119.859    95181226.4211       1623.786          45.000  
G25  24528456.993   100439989.115         579.955          35.000  
J 2  36248816.542   148432855.4051       -310.583          42.000  
J 4  38014133.715   155661532.3041       -758.437          45.000  
J 7  36823769.754   150787182.1181       -207.460          43.000  
R24  22414385.340    93224259.0211      -1056.214          43.000  
R17  21005335.152    87425160.4631        721.741          48.000  
R 3  20352814.825    84739043.8091       1915.213          44.000  
> 2025  5 19  6  9 29.4010000  0 58                     
G 5  22382027.446   117618338.3211       1581.500          43.000  
G 6  22631158.252   118927530.8951       -977.277          43.000  
G11  22080965.227   116036251.7761        101.870          45.000  
G12  22929636.252                        -567.434          32.000  
G17  23663788.945   124354061.3301      -2963.397          43.000  
J 4  38014149.947   199765702.7021       -973.358          44.000  
C 7  35884461.532   186859809.4951       -422.385          44.000  
C 8  36837031.085   191820089.5581       -776.350          42.000  
C10  36124006.850   188107183.4441       -109.601          43.000  
C13  37239858.767   193917717.9721       -597.088          44.000  
C14  22201844.929   115610835.195         931.320          45.000  
C33  23705317.632   123439815.828        2229.317          45.000  
R 2  20270297.211   108166189.567       -1775.034          48.000  
R18  22925074.197   122375583.1421       2087.592          46.000  
R 1  23799942.713                       -4305.119          29.000  
R24  22414403.809   119859880.5421      -1358.395          45.000  
G20  21091522.347   110836696.051        -365.704          43.000  
G25  24528429.513   128897806.4361        744.613          35.000  
G19  21397026.286   112442129.401       -2347.083          45.000  
S37  36823766.936   193510204.101        -266.332          42.000  
S28  37641586.415   197807869.902        -264.618          42.000  
R 4  24051694.564   128795732.165        4158.612          36.000  
R17  21005314.644   112403698.8611        927.563          47.000  
R 3  20352762.713   108949919.7751       2462.253          47.000  
E12                                                                
E19                                                                
E23                                                                
E29                                                                
J 2  36248814.967   190488801.5851       -398.627          43.000  
J 7  36823771.075   193510221.3761       -266.133          38.000  
J 3  39742815.121   208849893.963         379.883          44.000  
G13  24180199.833   127067808.865        3228.137          33.000  
G22  25078596.029                       -3302.713          27.000  
G 9  23706861.012                       -2322.496          31.000  
E12                                                                
E19                                                                
E23                                                                
E26                                                                
E29                                                                
C 7  35884457.881   144491842.2211       -326.615          46.000  
C 8  36837027.997   148327433.2531       -600.295          45.000  
C10  36124006.817   145456401.7011        -84.875          44.000  
C13  37239864.943   149949496.4441       -461.431          42.000  
C14  22201845.006    89397630.033         720.082          47.000  
G 5  22382033.041    91650692.4031       1231.946          39.000  
G 6  22631162.896    92670819.2641       -761.690          44.000  
G11  22080966.680    90417864.6171         79.375          43.000  
G12  22929638.878    93893040.565        -442.712          33.000  
G17  23663798.696    96899292.9831      -2309.105          39.000  
R 2  20270302.166    84129281.486       -1380.681          45.000  
R18  22925080.733    95181064.0181       1623.728          45.000  
G25  24528442.817   100439931.042         580.357          35.000  
J 2  36248824.132   148432886.4481       -310.736          42.000  
J 4  38014152.269   155661608.1251       -758.513          45.000  
J 7  36823774.798   150787202.8231       -207.382          43.000  
R24  22414410.734    93224364.6681      -1056.880          43.000  
R17  21005317.850    87425088.2961        721.246          48.000  
R 3  20352768.832    84738852.2781       1915.039          44.000  
> 2025  5 19  6  9 29.5010000  0 58                     
G 5  22381997.322   117618180.0791       1583.016          43.000  
G 6  22631176.850   118927628.5431       -975.867          43.000  
G11  22080963.274   116036241.5021        103.279          45.000  
G12  22929646.982                        -566.032          32.000  
G17  23663845.309   124354357.5421      -2961.431          43.000  
J 4  38014168.469   199765799.9441       -971.687          44.000  
C 7  35884469.598   186859851.6321       -420.664          44.000  
C 8  36837045.977   191820167.1071       -774.911          42.000  
C10  36124008.929   188107194.3231       -108.038          43.000  
C13  37239870.201   193917777.5661       -595.267          44.000  
C14  22201826.995   115610741.958         932.890          45.000  
C33  23705274.788   123439592.784        2231.255          45.000  
R 2  20270330.472   108166366.981       -1773.425          48.000  
R18  22925035.047   122375374.2751       2089.470          46.000  
R 1  23800024.571                       -4301.278          29.000  
R24  22414429.209   119860016.3001      -1357.063          45.000  
G20  21091529.307   110836732.522        -363.977          43.000  
G25  24528415.389   128897731.8311        747.149          35.000  
G19  21397070.943   112442364.042       -2345.776          45.000  
S37  36823771.977   193510230.611        -264.281          42.000  
S28  37641591.427   197807896.229        -262.497          42.000  
R 4  24051616.893   128795316.167        4160.895          36.000  
R17  21005297.318   112403606.0011        929.334          47.000  
R 3  20352716.710   108949673.4621       2463.836          47.000  
E12                                                                
E19                                                                
E23                                                                
E29                                                                
J 2  36248822.562   190488841.3431       -396.802          43.000  
J 7  36823776.128   193510247.8841       -264.662          38.000  
J 3  39742807.876   208849855.867         381.528          44.000  
G13  24180138.415   127067485.860        3230.768          33.000  
G22  25078661.035                       -3302.713          27.000  
G 9  23706905.193                       -2321.259          31.000  
E12                                                                
E19                                                                
E23                                                                
E26                                                                
E29                                                                
C 7  35884465.977   144491874.8121       -325.274          46.000  
C 8  36837042.894   148327493.2251       -599.263          45.000  
C10  36124008.916   145456410.0961        -83.240          44.000  
C13  37239876.396   149949542.5291       -460.269          42.000  
C14  22201827.070    89397557.919         721.614          47.000  
G 5  22382002.879    91650569.0671       1233.923          39.000  
G 6  22631181.512    92670895.3551       -760.442          44.000  
G11  22080964.722    90417856.6051         80.527          43.000  
G12  22929649.780    93893084.671        -440.330          33.000  
G17  23663855.077    96899523.8111      -2307.779          39.000  
R 2  20270335.432    84129419.475       -1379.336          45.000  
R18  22925041.595    95180901.5761       1624.912          45.000  
G25  24528428.607   100439872.909         581.862          36.000  
J 2  36248831.684   148432917.4201       -309.149          42.000  
J 4  38014170.765   155661683.8891       -757.070          45.000  
J 7  36823779.790   150787223.5051       -206.466          43.000  
R24  22414436.167    93224470.2481      -1055.295          43.000  
R17  21005300.503    87425016.0671        722.754          48.000  
R 3  20352722.800    84738660.6991       1916.297          44.000  
> 2025  5 19  6  9 29.6010000  0 58                     
G 5  22381967.143   117618021.6771       1583.826          43.000  
G 6  22631195.386   118927726.0111       -975.060          43.000  
G11  22080961.278   116036231.0551        104.282          45.000  
G12  22929657.755                        -566.145          32.000  
G17  23663901.658   124354653.6431      -2961.386          43.000  
J 4  38014186.916   199765897.0511       -971.423          44.000  
C 7  35884477.668   186859893.6451       -420.215          44.000  
C 8  36837060.832   191820244.4751       -773.864          42.000  
C10  36124010.991   188107205.0571       -107.861          43.000  
C13  37239881.578   193917837.0031       -594.490          44.000  
C14  22201809.016   115610648.557         933.629          45.000  
C33  23705231.924   123439369.629        2231.203          45.000  
R 2  20270363.699   108166544.258       -1773.077          48.000  
R18  22924995.856   122375165.2571       2089.872          46.000  
R 1  23800105.854                       -4301.348          30.000  
R24  22414454.531   119860151.9011      -1356.203          45.000  
G20  21091536.202   110836768.856        -363.654          43.000  
G25  24528401.163                         746.366          35.000  
G19  21397115.540   112442598.536       -2345.235          45.000  
S37  36823777.005   193510257.002        -264.319          42.000  
S28  37641596.387   197807922.425        -262.059          42.000  
R 4  24051539.139   128794900.102        4160.053          36.000  
R17  21005279.909   112403513.0011        929.718          47.000  
R 3  20352670.666   108949427.0021       2464.269          47.000  
E12                                                                
E19                                                                
E23                                                                
E29                                                                
J 2  36248830.076   190488880.9811       -396.741          43.000  
J 7  36823781.172   193510274.2761       -264.099          38.000  
J 3  39742800.599   208849817.592         382.559          44.000  
G13  24180076.870   127067162.771        3230.829          33.000  
G22  25078722.524                       -3302.713          27.000  
G 9  23706949.325                       -2320.402          31.000  
E12                                                                
E19                                                                
E23                                                                
E26                                                                
E29                                                                
C 7  35884474.042   144491907.2941       -324.896          46.000  
C 8  36837057.744   148327553.0521       -598.389          45.000  
C10  36124010.999   145456418.4051        -83.325          44.000  
C13  37239887.801   149949588.5051       -459.847          42.000  
C14  22201809.133    89397485.702         721.995          47.000  
G 5  22381972.694    91650445.6521       1234.021          39.000  
G 6  22631200.042    92670971.2921       -759.432          44.000  
G11  22080962.716    90417848.4471         81.566          44.000  
G12  22929660.638    93893128.740        -441.362          34.000  
G17  23663911.383    96899754.5241      -2307.161          39.000  
R 2  20270368.622    84129557.355       -1378.911          45.000  
R18  22925002.391    95180738.9951       1625.768          45.000  
G25  24528414.373   100439814.715         581.868          36.000  
J 2  36248839.205   148432948.3021       -308.972          42.000  
J 4  38014189.248   155661759.5501       -756.707          45.000  
J 7  36823784.790   150787244.0281       -205.336          43.000  
R24  22414461.528    93224575.7111      -1054.662          43.000  
R17  21005283.100    87424943.7281        723.218          48.000  
R 3  20352676.756    84738469.0061       1916.695          44.000  
> 2025  5 19  6  9 29.7010000  0 58                     
G 5  22381937.083   117617863.6331       1579.739          43.000  
G 6  22631214.003   118927823.8171       -978.715          43.000  
G11  22080959.336   116036220.9391        100.565          45.000  
G12  22929668.587                        -568.640          32.000  
G17  23663958.033   124354950.0441      -2964.671          43.000  
J 4  38014205.503   199765994.4501       -974.807          44.000  
C 7  35884485.799   186859935.9641       -423.770          44.000  
C 8  36837075.797   191820322.2011       -777.841          42.000  
C10  36124013.164   188107216.0881       -111.163          43.000  
C13  37239893.080   193917896.7911       -598.508          44.000  
C14  22201791.175   115610555.506         929.835          45.000  
C33  23705189.139   123439146.793        2227.632          45.000  
R 2  20270397.015   108166721.857       -1776.705          48.000  
R18  22924956.771   122374956.5611       2086.261          46.000  
R 1  23800188.442                       -4305.195          30.000  
R24  22414479.964   119860287.8411      -1359.952          45.000  
G20  21091543.220   110836805.487        -366.998          43.000  
G25  24528387.061                         743.945          35.000  
G19  21397160.246   112442833.367       -2349.087          45.000  
S37  36823782.130   193510283.693        -267.682          42.000  
S28  37641601.450   197807948.940        -265.867          42.000  
R 4  24051461.557   128794484.333        4156.689          36.000  
R17  21005262.601   112403420.3021        926.300          47.000  
R 3  20352624.709   108949180.8751       2460.504          47.000  
E12                                                                
E19                                                                
E23                                                                
E29                                                                
J 2  36248837.674   190488920.9261       -400.208          43.000  
J 7  36823786.253   193510300.9931       -267.925          38.000  
J 3  39742793.388   208849779.673         378.676          44.000  
G13  24180015.456                        3226.428          33.000  
G22  25078786.818                       -3302.713          27.000  
G 9  23706993.567                       -2322.720          31.000  
E12                                                                
E19                                                                
E23                                                                
E26                                                                
E29                                                                
C 7  35884482.219   144491940.0181       -327.845          46.000  
C 8  36837072.675   148327613.1521       -601.520          45.000  
C10  36124013.131   145456426.9441        -86.041          44.000  
C13  37239899.308   149949634.7201       -462.847          42.000  
C14  22201791.279    89397413.765         718.735          47.000  
G 5  22381942.649    91650322.5011       1231.006          39.000  
G 6  22631218.674    92671047.5141       -762.863          44.000  
G11  22080960.820    90417840.5851         78.166          44.000  
G12  22929671.568    93893172.982        -442.902          34.000  
G17  23663967.805    96899985.5271      -2310.701          39.000  
R 2  20270401.929    84129695.491       -1381.986          45.000  
R18  22924963.287    95180576.6861       1622.620          45.000  
G25  24528400.234   100439756.768         578.887          36.000  
J 2  36248846.797   148432979.4471       -311.981          42.000  
J 4  38014207.804   155661835.4681       -759.698          45.000  
J 7  36823789.875   150787264.8581       -208.783          43.000  
R24  22414486.997    93224681.4371      -1057.724          43.000  
R17  21005265.764    87424871.6361        720.392          48.000  
R 3  20352630.785    84738277.5951       1913.527          44.000  
> 2025  5 19  6  9 29.8010000  0 58                     
G 5  22381907.010   117617705.5521       1580.451          43.000  
G 6  22631232.626   118927921.5651       -977.748          43.000  
G11  22080957.391   116036210.8121        100.928          45.000  
G12  22929679.360                        -568.065          32.000  
G17  23664014.444   124355246.4411      -2964.124          43.000  
J 4  38014224.042   199766091.8501       -974.438          44.000  
C 7  35884493.924   186859978.2631       -423.324          44.000  
C 8  36837090.675   191820399.8891       -777.268          42.000  
C10  36124015.334   188107227.1171       -110.498          43.000  
C13  37239904.560   193917956.5501       -597.901          44.000  
C14  22201773.304   115610462.427         930.414          44.000  
C33  23705146.320   123438923.925        2228.417          45.000  
R 2  20270430.290   108166899.440       -1776.154          48.000  
R18  22924917.669   122374747.8531       2086.711          46.000  
R 1  23800270.449                       -4304.335          30.000  
R24  22414505.369   119860423.7381      -1359.310          45.000  
G20  21091550.189   110836842.135        -366.632          43.000  
G25  24528372.886                         743.571          35.000  
G19  21397204.910   112443068.152       -2348.227          45.000  
S37  36823787.191   193510310.372        -266.987          42.000  
S28  37641606.489   197807975.458        -265.379          42.000  
R 4  24051383.913   128794068.521        4157.971          36.000  
R17  21005245.275   112403327.5961        926.801          47.000  
R 3  20352578.739   108948934.7441       2460.907          47.000  
E12                                                                
E19                                                                
E23                                                                
E29                                                                
J 2  36248845.277   190488960.8501       -399.396          43.000  
J 7  36823791.316   193510327.6431       -266.995          38.000  
J 3  39742786.159   208849741.705         379.368          44.000  
G13  24179954.021                        3227.631          33.000  
G22  25078850.964                       -3302.713          28.000  
G 9  23707037.759                       -2323.448          31.000  
E12                                                                
E19                                                                
E23                                                                
E26                                                                
E29                                                                
C 7  35884490.353   144491972.7371       -327.301          46.000  
C 8  36837087.600   148327673.2281       -601.088          45.000  
C10  36124015.251   145456435.4591        -85.315          44.000  
C13  37239910.795   149949680.9421       -462.456          42.000  
C14  22201773.414    89397341.785         719.492          47.000  
G 5  22381912.560    91650199.3121       1231.575          39.000  
G 6  22631237.282    92671123.6941       -762.043          44.000  
G11  22080958.894    90417832.6881         78.664          44.000  
G12  22929682.481    93893217.297        -443.493          34.000  
G17  23664024.195    96900216.4571      -2309.512          39.000  
R 2  20270435.175    84129833.606       -1381.336          45.000  
R18  22924924.175    95180414.3481       1623.198          45.000  
G25  24528386.043   100439698.757         579.803          36.000  
J 2  36248854.400   148433010.5461       -311.237          42.000  
J 4  38014226.333   155661911.3561       -759.124          45.000  
J 7  36823794.980   150787285.6231       -207.904          43.000  
R24  22414512.397    93224787.1441      -1057.264          43.000  
R17  21005248.413    87424799.5261        720.947          48.000  
R 3  20352584.806    84738086.1451       1914.319          44.000  
> 2025  5 19  6  9 29.9010000  0 58                     
G 5  22381876.913   117617547.3751       1582.445          43.000  
G 6  22631251.171   118928019.2071       -975.784          43.000  
G11  22080955.463   116036200.5421        103.310          46.000  
G12  22929690.130                        -566.545          32.000  
G17  23664070.804   124355542.6761      -2961.628          43.000  
J 4  38014242.572   199766189.0851       -971.622          44.000  
C 7  35884502.025   186860020.4411       -421.189          44.000  
C 8  36837105.537   191820477.4591       -775.066          42.000  
C10  36124017.416   188107237.9931       -107.983          43.000  
C13  37239916.008   193918016.1891       -595.804          44.000  
C14  22201755.371   115610369.217         932.765          45.000  
C33  23705103.504   123438700.941        2230.583          45.000  
R 2  20270463.544   108167076.880       -1773.689          48.000  
R18  22924878.506   122374539.0241       2088.945          46.000  
R 1  23800352.696                       -4302.575          30.000  
R24  22414530.733   119860559.4711      -1356.588          45.000  
G20  21091557.124   110836878.647        -364.313          43.000  
G25  24528358.712   128897433.8841        744.940          35.000  
G19  21397249.553   112443302.790       -2345.662          45.000  
S37  36823792.217   193510336.884        -264.555          42.000  
S28  37641611.515   197808001.829        -263.030          42.000  
R 4  24051306.222   128793652.588        4159.918          36.000  
R17  21005227.924   112403234.7361        929.358          47.000  
R 3  20352532.731   108948688.4661       2463.449          46.000  
E12                                                                
E19                                                                
E23                                                                
E29                                                                
J 2  36248852.840   190489000.6221       -396.948          42.000  
J 7  36823796.347   193510354.1381       -264.208          38.000  
J 3  39742778.920   208849703.597         381.710          44.000  
G13  24179892.556                        3231.024          33.000  
G22  25078915.289                       -3302.713          28.000  
G 9  23707081.909                       -2321.048          31.000  
E12                                                                
E19                                                                
E23                                                                
E26                                                                
E29                                                                
C 7  35884498.454   144492005.3381       -325.444          46.000  
C 8  36837102.501   148327733.2161       -599.364          45.000  
C10  36124017.347   145456443.8861        -83.728          44.000  
C13  37239922.225   149949727.0561       -460.708          42.000  
C14  22201755.521    89397269.702         721.362          47.000  
G 5  22381882.450    91650076.0651       1232.727          39.000  
G 6  22631255.858    92671199.7711       -760.276          44.000  
G11  22080956.948    90417824.6791         80.681          44.000  
G12  22929693.351    93893261.462        -441.339          34.000  
G17  23664080.566    96900447.2941      -2307.855          39.000  
R 2  20270468.420    84129971.613       -1379.449          45.000  
R18  22924885.025    95180251.9401       1624.547          45.000  
G25  24528371.854   100439640.729         580.783          36.000  
J 2  36248861.955   148433041.5351       -309.302          42.000  
J 4  38014244.837   155661987.1251       -757.128          45.000  
J 7  36823800.033   150787306.2881       -206.095          43.000  
R24  22414537.786    93224892.7211      -1055.035          43.000  
R17  21005231.054    87424727.3191        722.644          48.000  
R 3  20352538.781    84737894.5941       1915.989          44.000  
> 2025  5 19  6  9 30.0010000  0 58                     
G 5  22381846.800   117617389.0991       1583.097          43.000  
G 6  22631269.686   118928116.6461       -973.823          43.000  
G11  22080953.504   116036190.1421        104.411          46.000  
G12  22929700.925                        -566.683          32.000  
G17  23664127.140   124355838.7501      -2960.104          42.000  
J 4  38014261.025   199766286.1441       -970.107          44.000  
C 7  35884510.042   186860062.4581       -419.691          44.000  
C 8  36837120.435   191820554.8841       -773.826          42.000  
C10  36124019.475   188107248.7541       -107.159          43.000  
C13  37239927.433   193918075.7041       -594.926          44.000  
C14  22201737.436   115610275.863         933.932          45.000  
C33  23705060.638   123438477.828        2231.571          45.000  
R 2  20270496.785   108167254.174       -1772.485          48.000  
R18  22924839.325   122374330.0901       2089.592          46.000  
R 1  23800433.657                       -4300.781          31.000  
R24  22414556.080   119860695.0221      -1354.874          45.000  
G20  21091564.035   110836915.026        -363.348          43.000  
G25  24528344.522   128897359.3081        745.804          35.000  
G19  21397294.146   112443537.261       -2344.125          45.000  
S37  36823797.222   193510363.259        -263.334          42.000  
S28  37641616.514   197808028.085        -262.183          42.000  
R 4  24051228.515   128793236.552        4160.889          36.000  
R17  21005210.562   112403141.7381        930.396          46.000  
R 3  20352486.718   108948442.0391       2464.755          46.000  
E12                                                                
E19                                                                
E23                                                                
E29                                                                
J 2  36248860.360   190489040.2421       -395.764          42.000  
J 7  36823801.387   193510380.5431       -263.823          38.000  
J 3  39742771.629   208849665.314         383.419          44.000  
G13  24179831.056   127065871.136        3230.884          33.000  
G22  25078978.312                       -3302.713          28.000  
G 9  23707126.036                       -2319.109          31.000  
E12                                                                
E19                                                                
E23                                                                
E26                                                                
E29                                                                
C 7  35884506.554   144492037.8321       -324.633          46.000  
C 8  36837117.351   148327793.0801       -598.254          45.000  
C10  36124019.417   145456452.2181        -83.130          44.000  
C13  37239933.649   149949773.0621       -459.779          42.000  
C14  22201737.601    89397197.511         722.237          47.000  
G 5  22381852.334    91649952.7011       1233.906          39.000  
G 6  22631274.393    92671275.7101       -758.984          44.000  
G11  22080955.011    90417816.5701         81.340          44.000  
G12  22929704.135    93893305.602        -441.580          33.000  
G17  23664136.892    96900677.9851      -2306.510          39.000  
R 2  20270501.648    84130109.494       -1378.345          45.000  
R18  22924845.870    95180089.4121       1625.494          45.000  
G25  24528357.641   100439582.593         581.641          36.000  
J 2  36248869.491   148433072.4101       -308.405          42.000  
J 4  38014263.265   155662062.7611       -755.839          45.000  
J 7  36823805.063   150787326.8211       -204.839          43.000  
R24  22414563.143    93224998.1371      -1053.640          42.000  
R17  21005213.642    87424654.9791        723.730          48.000  
R 3  20352492.721    84737702.9341       1917.045          44.000  
> 2025  5 19  6  9 30.1010000  0 58                     
G 5  22381816.723   117617231.0531       1579.009          43.000  
G 6  22631288.225   118928214.2001       -976.181          42.000  
G11  22080951.570   116036179.9291        101.033          45.000  
G12  22929711.740                        -568.595          32.000  
G17  23664183.496   124356134.8501      -2961.542          41.000  
J 4  38014279.513   199766383.3511       -972.937          44.000  
C 7  35884518.170   186860104.6621       -423.159          44.000  
C 8  36837135.375   191820632.5351       -777.649          42.000  
C10  36124021.607   188107259.7381       -111.353          43.000  
C13  37239938.862   193918135.4451       -598.782          44.000  
C14  22201719.576   115610182.700         930.463          45.000  
C33  23705017.856   123438254.923        2227.654          45.000  
R 2  20270530.061   108167431.618       -1775.449          48.000  
R18  22924800.205   122374121.3911       2085.700          46.000  
R 1  23800515.280                       -4304.724          31.000  
R24  22414581.454   119860830.7031      -1357.487          46.000  
G20  21091571.017   110836951.650        -367.621          43.000  
G25  24528330.365                         742.750          35.000  
G19  21397338.772   112443771.871       -2346.839          46.000  
S37  36823802.279   193510389.772        -266.223          42.000  
S28  37641621.547   197808054.568        -266.255          42.000  
R 4  24051150.869   128792820.710        4157.184          36.000  
R17  21005193.240   112403048.9131        927.075          46.000  
R 3  20352440.687   108948195.8231       2460.935          46.000  
E12                                                                
E19                                                                
E23                                                                
E29                                                                
J 2  36248867.930   190489080.0211       -398.914          42.000  
J 7  36823806.461   193510407.0271       -265.562          38.000  
J 3  39742764.364   208849627.184         380.562          44.000  
G13  24179769.638   127065548.186        3228.497          33.000  
G22  25079043.106                       -3302.713          27.000  
G 9  23707170.204                       -2323.587          31.000  
E12                                                                
E19                                                                
E23                                                                
E26                                                                
E29                                                                
C 7  35884514.667   144492070.4641       -327.137          45.000  
C 8  36837132.275   148327853.1411       -601.428          45.000  
C10  36124021.506   145456460.6851        -85.767          44.000  
C13  37239945.150   149949819.2841       -463.295          42.000  
C14  22201719.726    89397125.468         719.518          47.000  
G 5  22381822.289    91649829.5411       1230.560          40.000  
G 6  22631292.948    92671351.7521       -760.848          43.000  
G11  22080953.109    90417808.6131         78.700          44.000  
G12  22929715.010                        -445.244          33.000  
G17  23664193.247    96900908.7561      -2308.286          39.000  
R 2  20270534.885    84130247.498       -1380.774          45.000  
R18  22924806.755    95179927.0601       1622.611          44.000  
G25  24528343.461   100439524.597         579.039          35.000  
J 2  36248877.113   148433103.4031       -310.797          42.000  
J 4  38014281.774   155662138.5031       -758.016          45.000  
J 7  36823810.113   150787347.4771       -207.234          43.000  
R24  22414588.500    93225103.6001      -1055.049          42.000  
R17  21005196.297    87424582.7741        721.295          47.000  
R 3  20352446.706    84737511.4031       1914.319          44.000  
> 2025  5 19  6  9 30.2010000  0 58                     
G 5  22381786.721   117617073.3821       1575.353          43.000  
G 6  22631306.877   118928312.0131       -978.734          44.000  
G11  22080949.709   116036169.9821         98.712          45.000  
G12  22929722.670                        -574.906          32.000  
G17  23664239.957   124356431.2601      -2965.344          43.000  
J 4  38014298.064   199766480.7881       -975.272          44.000  
C 7  35884526.373   186860147.1681       -426.155          44.000  
C 8  36837150.395   191820710.5111       -780.953          42.000  
C10  36124023.781   188107270.9891       -113.489          43.000  
C13  37239950.424   193918195.5411       -602.168          44.000  
C14  22201701.758   115610089.863         927.314          45.000  
C33  23704975.130   123438032.330        2224.816          45.000  
R 2  20270563.402   108167609.299       -1777.634          49.000  
R18  22924761.163   122373912.9571       2083.614          46.000  
R 1  23800596.896                       -4304.349          31.000  
R24  22414606.883   119860966.5321      -1358.440          46.000  
G20  21091578.034   110836988.586        -370.483          43.000  
G25  24528316.331                         739.375          32.000  
G19  21397383.480   112444006.752       -2349.511          46.000  
S37  36823807.377   193510416.572        -268.907          42.000  
S28  37641626.679   197808081.409        -269.694          43.000  
R 4  24051073.310   128792405.1931       4154.077          36.000  
R17  21005175.985   112402956.3011        925.433          46.000  
R 3  20352394.751   108947949.9321       2457.691          46.000  
E12                                                                
E19                                                                
E23                                                                
E29                                                                
J 2  36248875.582   190489120.0891       -401.849          43.000  
J 7  36823811.566   193510433.8461       -268.955          38.000  
J 3  39742757.154   208849589.271         378.566          44.000  
G13  24179708.248   127065225.545        3225.055          33.000  
G 9  23707214.441                       -2323.398          32.000  
E12                                                                
E19                                                                
E23                                                                
E26                                                                
E29                                                                
C 7  35884522.852   144492103.3251       -329.401          45.000  
C 8  36837147.268   148327913.4601       -603.938          45.000  
C10  36124023.688   145456469.3911        -87.781          44.000  
C13  37239956.706   149949865.7521       -465.515          42.000  
C14  22201701.943    89397053.690         716.940          47.000  
G 5  22381792.322    91649706.7041       1227.280          39.000  
G 6  22631311.534    92671427.9311       -762.003          43.000  
G11  22080951.222    90417800.8481         77.019          44.000  
G12  22929725.967                        -447.092          33.000  
G17  23664249.670    96901139.7231      -2310.400          39.000  
R 2  20270568.155    84130385.686       -1382.408          45.000  
R18  22924767.730    95179764.9451       1620.404          43.000  
G25  24528329.463   100439467.133         572.696          32.000  
J 2  36248884.774   148433134.6331       -313.202          43.000  
J 4  38014300.325   155662214.4491       -760.068          45.000  
J 7  36823815.231   150787368.3571       -209.515          45.000  
R24  22414613.918    93225209.2961      -1057.600          43.000  
R17  21005179.003    87424510.7281        719.977          47.000  
R 3  20352400.782    84737320.1401       1911.695          43.000  
R 4  24051090.064   100171964.6391       3230.433          40.000  
> 2025  5 19  6  9 30.3010000  0 58                     
G 5  22381756.675   117616915.5211       1578.199          43.000  
G 6  22631325.486   118928409.6581       -976.298          44.000  
G11  22080947.783   116036159.8141        101.497          45.000  
G12  22929733.557                        -571.446          32.000  
G17  23664296.405   124356727.6391      -2963.085          43.000  
J 4  38014316.594   199766578.1291       -973.315          44.000  
C 7  35884534.435   186860189.5621       -424.061          43.000  
C 8  36837165.347   191820788.3501       -778.871          42.000  
C10  36124025.895   188107282.1401       -111.591          42.000  
C13  37239961.900   193918255.5011       -599.969          44.000  
C14  22201683.878   115609996.900         929.498          45.000  
C33  23704932.389   123437809.666        2226.549          44.000  
R 2  20270596.660   108167786.835       -1775.291          49.000  
R18  22924722.044   122373704.2771       2086.482          46.000  
R 1  23800676.697                       -4302.828          30.000  
R24  22414632.239   119861102.2341      -1356.604          45.000  
G20  21091585.036   110837025.382        -368.164          43.000  
G25  24528302.208                         742.692          32.000  
G19  21397428.117   112444241.477       -2346.785          46.000  
S37  36823812.437   193510443.277        -266.814          41.000  
S28  37641631.767   197808108.120        -267.394          42.000  
R 4  24050995.669                        4157.623          38.000  
R17  21005158.636   112402863.5181        927.826          46.000  
R 3  20352348.785   108947703.9291       2460.200          44.000  
E12                                                                
E19                                                                
E23                                                                
E29                                                                
J 2  36248883.206   190489160.0911       -399.762          42.000  
J 7  36823816.664   193510460.5481       -266.783          38.000  
J 3  39742749.892   208849551.191         380.967          44.000  
G13  24179646.839   127064902.839        3227.325          33.000  
G 9  23707258.605                       -2320.447          32.000  
E12                                                                
E19                                                                
E23                                                                
E26                                                                
E29                                                                
C 7  35884531.001   144492136.1161       -328.111          45.000  
C 8  36837162.186   148327973.6431       -601.884          45.000  
C10  36124025.812   145456478.0011        -86.157          44.000  
C13  37239968.194   149949912.0881       -463.437          42.000  
C14  22201684.067    89396981.830         718.546          46.000  
G 5  22381762.296    91649583.7451       1229.574          38.000  
G 6  22631330.123    92671504.0011       -760.696          44.000  
G11  22080949.291    90417792.9631         78.811          44.000  
G12  22929736.899                        -444.633          33.000  
G17  23664306.112    96901370.6751      -2309.391          39.000  
R 2  20270601.380    84130523.790       -1380.997          46.000  
R18  22924728.584    95179602.6691       1622.469          42.000  
G25  24528315.272                         579.314          33.000  
J 2  36248892.377   148433165.7771       -311.169          43.000  
J 4  38014318.846   155662290.2811       -758.099          45.000  
J 7  36823820.305   150787389.1471       -207.711          45.000  
R24  22414639.311    93225314.8441      -1055.010          43.000  
R17  21005161.623    87424438.5791        721.460          47.000  
R 3  20352354.823    84737128.8191       1913.178          43.000  
R 4  24051012.417   100171641.373        3233.039          38.000  
> 2025  5 19  6  9 30.4010000  0 58                     
G 5  22381726.736   117616757.9881       1574.756          42.000  
G 6  22631344.060   118928507.4091       -977.786          44.000  
G11  22080945.893   116036149.9291         98.419          45.000  
G12  22929744.494                        -574.879          32.000  
G17  23664352.759   124357023.9011      -2962.676          42.000  
J 4  38014335.146   199766675.5461       -974.444          43.000  
C 7  35884542.568   186860232.0991       -425.570          43.000  
C 8  36837180.367   191820866.4011       -780.753          42.000  
C10  36124028.054   188107293.4451       -113.409          42.000  
C13  37239973.481   193918315.6701       -602.133          44.000  
C14  22201666.045   115609904.081         927.889          45.000  
C33  23704889.720   123437587.153        2224.732          43.000  
R 2  20270629.976   108167964.521       -1777.099          48.000  
R18  22924683.026   122373495.9551       2082.659          44.000  
R 1  23800756.977                       -4302.948          30.000  
R24  22414657.636   119861237.9971      -1357.671          45.000  
G20  21091592.075   110837062.392        -370.410          44.000  
G25  24528288.205                         736.420          32.000  
G19  21397472.780   112444476.301       -2348.652          46.000  
S37  36823817.560   193510470.018        -267.623          40.000  
S28  37641636.893   197808135.043        -269.709          42.000  
R 4  24050918.124                        4152.337          33.000  
R17  21005141.324   112402770.9391        925.543          46.000  
R 3  20352302.838   108947458.0121       2458.906          44.000  
E12                                                                
E19                                                                
E23                                                                
E29                                                                
J 2  36248890.823   190489200.1411       -400.586          41.000  
J 7  36823821.692   193510487.2901       -267.534          38.000  
J 3  39742742.712   208849513.309         378.527          44.000  
G13  24179585.439   127064580.279        3225.219          34.000  
G 9  23707302.803                       -2324.780          32.000  
E12                                                                
E19                                                                
E23                                                                
E26                                                                
E29                                                                
C 7  35884539.178   144492169.0111       -329.244          45.000  
C 8  36837177.171   148328033.9771       -603.593          45.000  
C10  36124028.023   145456486.7761        -88.177          44.000  
C13  37239979.738   149949958.6071       -465.399          42.000  
C14  22201666.231    89396910.056         717.569          46.000  
G 5  22381732.302    91649460.9191       1227.969          40.000  
G 6  22631348.719    92671580.1961       -762.290          45.000  
G11  22080947.403    90417785.2491         76.748          43.000  
G12  22929747.790                        -447.534          29.000  
G17  23664362.497    96901601.5741      -2308.678          37.000  
R 2  20270634.713    84130662.000       -1382.291          46.000  
R18  22924689.564    95179440.5811       1620.724          42.000  
G25  24528301.157                         575.950          35.000  
J 2  36248899.999   148433196.9471       -311.829          43.000  
J 4  38014337.387   155662366.1851       -759.223          45.000  
J 7  36823825.419   150787410.0181       -208.965          45.000  
R24  22414664.695    93225420.4241      -1056.163          43.000  
R17  21005144.348    87424366.5691        719.800          45.000  
R 3  20352308.915    84736937.5711       1912.319          43.000  
R 4  24050934.809   100171318.192        3231.421          38.000  
> 2025  5 19  6  9 30.5010000  0 58                     
G 5  22381696.741   117616600.2791       1577.500          42.000  
G 6  22631362.649   118928605.1921       -977.896          44.000  
G11  22080943.969   116036139.9251        100.258          45.000  
G12  22929755.382                        -570.687          32.000  
G17  23664409.220   124357320.4091      -2965.505          43.000  
J 4  38014353.663   199766772.9341       -973.790          44.000  
C 7  35884550.699   186860274.5301       -423.921          44.000  
C 8  36837195.357   191820944.3001       -778.688          43.000  
C10  36124030.240   188107304.6391       -111.633          42.000  
C13  37239984.994   193918375.6821       -599.770          44.000  
C14  22201648.211   115609811.175         929.302          44.000  
C33  23704847.016   123437364.506        2226.781          44.000  
R 2  20270663.250   108168142.173       -1776.354          48.000  
R18  22924643.972   122373287.5391       2084.223          43.000  
R 1  23800837.993                       -4306.218          30.000  
R24  22414683.049   119861373.9131      -1359.620          46.000  
G20  21091599.104   110837099.282        -368.433          43.000  
G25  24528274.099                         740.884          32.000  
G19  21397517.457   112444711.140       -2348.349          45.000  
S37  36823822.625   193510496.762        -267.201          41.000  
S28  37641641.981   197808161.825        -267.409          41.000  
R 4  24050840.539                        4155.579          33.000  
R17  21005123.981   112402678.2731        926.947          46.000  
R 3  20352256.896   108947212.0751       2459.559          44.000  
E12                                                                
E19                                                                
E23                                                                
E29                                                                
J 2  36248898.411   190489240.1761       -400.311          41.000  
J 7  36823826.784   193510514.0391       -267.433          38.000  
J 3  39742735.451   208849475.323         380.081          44.000  
G13  24179524.036   127064257.646        3226.611          36.000  
G22  25079286.408                       -3303.171          28.000  
G 9  23707347.041                       -2323.877          32.000  
E12                                                                
E19                                                                
E23                                                                
E26                                                                
E29                                                                
C 7  35884547.308   144492201.8381       -327.946          45.000  
C 8  36837192.151   148328094.2651       -602.694          44.000  
C10  36124030.178   145456495.4411        -86.304          44.000  
C13  37239991.249   149950005.0241       -464.028          40.000  
C14  22201648.395    89396838.196         718.830          46.000  
G 5  22381702.304    91649338.0581       1228.646          40.000  
G 6  22631367.338    92671656.3831       -761.958          45.000  
G11  22080945.467    90417777.4551         78.220          42.000  
G12  22929758.681                        -445.249          29.000  
G17  23664418.859    96901832.4861      -2309.123          37.000  
R 2  20270668.028    84130800.144       -1381.181          46.000  
R18  22924650.483    95179278.4051       1621.925          43.000  
R15  23428524.967                       -2239.453          17.000  
G25  24528287.116                         575.197          32.000  
J 2  36248907.633   148433228.1601       -312.195          43.000  
J 4  38014355.933   155662442.0991       -759.052          45.000  
J 7  36823830.535   150787430.8751       -208.586          45.000  
R24  22414690.119    93225526.1151      -1056.958          44.000  
R17  21005127.014    87424294.4961        720.996          46.000  
> 2025  5 19  6  9 30.6010000  0 58                     
G 5  22381666.704   117616442.3861       1579.394          42.000  
G 6  22631381.251   118928702.8761       -976.896          44.000  
G11  22080942.007   116036129.7921        101.462          45.000  
G12  22929766.248                        -571.980          32.000  
G17  23664465.643   124357616.8101      -2964.073          41.000  
J 4  38014372.155   199766870.2451       -972.940          43.000  
C 7  35884558.793   186860316.8351       -422.715          44.000  
C 8  36837210.325   191821022.0771       -777.607          43.000  
C10  36124032.381   188107315.7221       -110.724          42.000  
C13  37239996.546   193918435.5571       -598.545          44.000  
C14  22201630.361   115609718.140         930.524          44.000  
C33  23704804.233   123437141.792        2227.230          45.000  
R 2  20270696.581   108168319.773       -1776.195          49.000  
R18  22924604.882   122373078.9641       2085.780          43.000  
R 1  23800918.250                       -4306.311          30.000  
R24  22414708.475   119861509.7541      -1358.778          45.000  
G20  21091606.101   110837136.017        -367.163          43.000  
G25  24528260.034                         740.625          32.000  
G19  21397562.108   112444945.898       -2347.756          45.000  
S37  36823827.686   193510523.416        -266.458          41.000  
S28  37641647.052   197808188.471        -266.053          41.000  
R 4  24050762.945                        4155.273          33.000  
R17  21005106.643   112402585.5511        926.953          47.000  
R 3  20352210.900   108946965.981        2461.043          44.000  
E12                                                                
E19                                                                
E23                                                                
E29                                                                
J 2  36248905.999   190489280.1431       -399.652          41.000  
J 7  36823831.846   193510540.6961       -266.588          38.000  
J 3  39742728.225   208849437.304         379.949          44.000  
G13  24179462.623   127063934.981        3226.459          36.000  
G22  25079343.912                       -3302.548          28.000  
G 9  23707391.268                       -2324.897          32.000  
E12                                                                
E19                                                                
E23                                                                
E26                                                                
E29                                                                
C 7  35884555.446   144492234.5341       -326.708          44.000  
C 8  36837207.057   148328154.3761       -600.697          43.000  
C10  36124032.292   145456504.0071        -85.547          44.000  
C13  37240002.751   149950051.3131       -462.766          40.000  
C14  22201630.535    89396766.259         719.388          48.000  
G 5  22381672.278    91649215.0811       1229.992          38.000  
G 6  22631385.939    92671732.5291       -761.459          45.000  
G11  22080943.524    90417769.5391         79.186          42.000  
G12  22929769.567                        -444.253          29.000  
G17  23664475.277    96902063.4991      -2310.884          37.000  
R 2  20270701.361    84130938.297       -1381.791          47.000  
R18  22924611.390    95179116.2031       1621.938          43.000  
R15  23428572.840                       -2239.453          17.000  
G25  24528272.927                         579.082          35.000  
J 2  36248915.257   148433259.3381       -311.810          43.000  
J 4  38014374.453   155662517.9401       -758.486          45.000  
J 7  36823835.618   150787451.6431       -207.616          45.000  
R24  22414715.518    93225631.7361      -1056.666          43.000  
R17  21005109.698    87424222.4161        720.648          46.000  
> 2025  5 19  6  9 30.7010000  0 58                     
G 5  22381636.653                        1582.466          42.000  
G 6  22631399.841   118928800.5681       -975.148          44.000  
G11  22080940.097   116036119.6391        103.508          45.000  
G12  22929777.064                        -568.262          32.000  
G17  23664522.040                       -2959.108          40.000  
J 4  38014390.639   199766967.4211       -969.293          43.000  
C 7  35884566.915   186860358.9771       -418.533          44.000  
C 8  36837225.252   191821099.7241       -773.977          42.000  
C10  36124034.471                        -105.359          42.000  
C13  37240008.030                        -595.315          44.000  
C14  22201612.452   115609624.964         934.240          44.000  
C33  23704761.480                        2231.849          46.000  
R 2  20270729.835   108168497.257       -1772.143          48.000  
R18  22924565.841                        2088.533          43.000  
R 1  23800999.847                       -4300.429          31.000  
R24  22414733.902   119861645.5561      -1356.167          45.000  
G20  21091613.070                        -362.909          43.000  
G25  24528245.951                         742.282          32.000  
G19  21397606.783   112445180.574       -2344.698          44.000  
S37  36823832.740                        -262.150          41.000  
S28  37641652.129                        -261.137          41.000  
R 4  24050685.313                        4161.151          33.000  
R17  21005089.313                         930.042          48.000  
R 3  20352164.933                        2464.927          45.000  
E12                                                                
E19                                                                
E23                                                                
E29                                                                
J 2  36248913.581   190489319.8881       -394.269          41.000  
J 7  36823836.916   193510567.1721       -262.286          38.000  
J 3  39742720.991   208849399.217         382.932          44.000  
G13  24179401.217                        3231.372          36.000  
G22  25079403.755                       -3303.003          28.000  
G 9  23707435.438                       -2320.715          32.000  
E12                                                                
E19                                                                
E23                                                                
E26                                                                
E29                                                                
C 7  35884563.557   144492267.0851       -323.169          45.000  
C 8  36837221.993   148328214.4011       -598.455          43.000  
C10  36124034.410   145456512.409         -81.378          43.000  
C13  37240014.266   149950097.533        -460.347          42.000  
C14  22201612.691    89396694.250         722.035          48.000  
G 5  22381642.271    91649091.937        1233.666          38.000  
G 6  22631404.557    92671808.5961       -759.123          44.000  
G11  22080941.604    90417761.6611         80.210          43.000  
G12  22929780.425                        -444.649          29.000  
G17  23664531.660    96902294.355       -2306.602          39.000  
R 2  20270734.670    84131076.338       -1378.191          46.000  
R18  22924572.301    95178953.970        1624.011          43.000  
R15  23428620.295                       -2239.453          18.000  
G25  24528258.784                         579.847          36.000  
J 2  36248922.812   148433290.3141       -307.068          42.000  
J 4  38014392.946   155662593.6111       -754.414          44.000  
J 7  36823840.703   150787472.2861       -204.390          44.000  
R24  22414740.933    93225737.3151      -1054.002          43.000  
R17  21005092.396    87424150.238         723.975          46.000  
> 2025  5 19  6  9 30.8010000  0 58                     
G 5  22381606.211                        1601.095          42.000  
G 6  22631418.062                        -956.425          44.000  
G11  22080937.828                         121.601          45.000  
G12  22929787.851                        -564.551          32.000  
G17  23664578.031                       -2942.477          40.000  
J 4  38014408.748                        -951.160          42.000  
C 7  35884574.617                        -401.006          44.000  
C 8  36837239.827                        -755.366          42.000  
C10  36124036.189                         -88.885          42.000  
C13  37240019.052                        -575.834          44.000  
C14  22201594.158                         952.804          45.000  
C33  23704718.450                        2242.529          45.000  
R 2  20270762.738                       -1754.663          48.000  
R18  22924526.404                        2105.946          44.000  
R 1  23801080.425                       -4286.302          30.000  
R24  22414758.933                       -1337.216          44.000  
G20  21091619.659                        -345.422          43.000  
G25  24528231.584                         751.123          33.000  
G19  21397651.050                       -2325.597          44.000  
S37  36823837.549                        -250.830          41.000  
S28  37641656.791                        -243.262          41.000  
R 4  24050607.336                        4178.546          36.000  
R17  21005071.786                         940.430          48.000  
R 3  20352118.528                        2484.069          45.000  
E12                                                                
E19                                                                
E23                                                                
E29                                                                
J 2  36248920.797                        -376.263          41.000  
J 7  36823841.533                        -243.461          37.000  
J 3  39742713.360                         402.140          44.000  
G13  24179339.519                        3238.818          36.000  
G22  25079464.371                       -3312.855          28.000  
G 9  23707479.094                       -2308.586          32.000  
E12                                                                
E19                                                                
E23                                                                
E26                                                                
E29                                                                
C 7  35884571.311   144492298.495        -310.751          45.000  
C 8  36837236.503   148328273.187        -584.662          43.000  
C10  36124036.149                         -68.427          43.000  
C13  37240025.357                        -445.721          42.000  
C14  22201594.390                         737.503          47.000  
G 5  22381611.816                        1247.776          38.000  
G 6  22631422.798    92671883.514        -746.262          44.000  
G11  22080939.302                          94.639          44.000  
G12  22929790.927                        -433.781          29.000  
G17  23664587.690                       -2292.720          39.000  
R 2  20270767.535                       -1364.128          46.000  
R18  22924532.831                        1637.520          43.000  
G25  24528244.277                         592.918          35.000  
J 2  36248930.000                        -292.560          40.000  
J 4  38014411.055                        -741.832          45.000  
J 7  36823845.402                        -189.819          43.000  
R24  22414765.919                       -1040.332          44.000  
R17  21005074.734                         737.256          46.000  
R 3  20352124.632                        1931.563          44.000  
> 2025  5 19  6  9 30.9010000  0 58                     
G 5  22381575.846                        1595.436          42.000  
G 6  22631436.399                        -964.226          45.000  
G11  22080935.635                         115.835          44.000  
G12  22929798.510                        -556.787          32.000  
G17  23664634.181                       -2949.529          42.000  
J 4  38014426.968                        -958.066          43.000  
C 7  35884582.456                        -407.260          44.000  
C 8  36837254.485                        -762.296          43.000  
C10  36124038.059                         -95.026          42.000  
C13  37240030.277                        -583.149          44.000  
C14  22201576.016                         946.459          44.000  
C33  23704675.425                        2243.066          45.000  
R 2  20270795.755                       -1761.821          48.000  
R18  22924487.081                        2098.609          44.000  
R 1  23801160.666                       -4289.356          30.000  
R24  22414784.066                       -1344.089          43.000  
G20  21091626.413                        -353.369          44.000  
G25  24528217.193                         754.883          33.000  
G19  21397695.481                       -2331.926          44.000  
S37  36823842.360                        -250.684          41.000  
S28  37641661.611                        -249.976          41.000  
R 4  24050529.463                        4172.742          36.000  
R17  21005054.216                         940.723          47.000  
R 3  20352072.254                        2477.268          45.000  
E12                                                                
E19                                                                
E23                                                                
E29                                                                
J 2  36248928.087                        -383.771          41.000  
J 7  36823846.279                        -249.252          37.000  
J 3  39742705.844                         395.286          43.000  
G13  24179277.871                        3238.281          33.000  
G 9  23707522.601                       -2311.430          32.000  
E12                                                                
E19                                                                
E23                                                                
E26                                                                
E29                                                                
C 7  35884579.133                        -314.381          44.000  
C 8  36837251.151                        -588.855          43.000  
C10  36124038.008                         -73.309          43.000  
C13  37240036.566                        -450.240          42.000  
C14  22201576.253                         731.083          47.000  
G 5  22381581.525                        1242.499          38.000  
G 6  22631441.118                        -750.745          44.000  
G11  22080937.136                          90.802          43.000  
G12  22929801.009                        -430.719          29.000  
G17  23664643.850                       -2297.668          39.000  
R 2  20270800.584                       -1371.042          46.000  
R18  22924493.513                        1632.156          43.000  
G25  24528229.923                         587.292          33.000  
J 2  36248937.369                        -300.146          43.000  
J 4  38014429.310                        -745.734          44.000  
J 7  36823850.226                        -194.788          44.000  
R24  22414791.110                       -1046.146          45.000  
R17  21005057.257                         730.908          47.000  
R 3  20352078.359                        1927.433          44.000  
R 4  24050546.130                        3245.264          41.000  
> 2025  5 19  6  9 31.0010000  0 58                     
G 5  22381545.605                        1590.067          43.000  
G 6  22631454.861                        -970.161          45.000  
G11  22080933.588                         109.353          45.000  
G12  22929809.061                        -556.315          32.000  
G17  23664690.408                       -2954.747          43.000  
J 4  38014445.336                        -963.514          43.000  
C 7  35884590.415                        -412.286          44.000  
C 8  36837269.190                        -767.032          43.000  
C10  36124039.946                        -100.073          42.000  
C13  37240041.581                        -586.992          44.000  
C14  22201557.944                         941.678          44.000  
C33  23704632.375                        2241.053          45.000  
R 2  20270828.878                       -1767.527          48.000  
R18  22924447.859                        2094.311          44.000  
R 1  23801241.752                       -4295.801          30.000  
R24  22414809.358                       -1351.621          45.000  
G20  21091633.198                        -355.957          43.000  
G25  24528202.864                         752.391          33.000  
G19  21397739.956                       -2337.549          44.000  
S37  36823847.132                        -254.281          41.000  
S28  37641666.446                        -253.857          41.000  
R 4  24050451.643                        4168.774          38.000  
R17  21005036.680                         937.195          46.000  
R 3  20352026.103                        2472.911          45.000  
E12                                                                
E19                                                                
E23                                                                
E29                                                                
J 2  36248935.471                        -388.275          42.000  
J 7  36823851.104                        -255.664          38.000  
J 3  39742698.457                         389.010          43.000  
G13  24179216.201                        3241.357          33.000  
G 9  23707567.217                       -2314.131          31.000  
E12                                                                
E19                                                                
E23                                                                
E26                                                                
E29                                                                
C 7  35884587.080                        -319.660          45.000  
C 8  36837265.897                        -594.309          45.000  
C10  36124039.946                         -77.875          44.000  
C13  37240047.862                        -454.651          42.000  
C14  22201558.180                         728.590          47.000  
G 5  22381551.263                        1239.630          38.000  
G 6  22631459.527                        -754.981          43.000  
G11  22080935.065                          84.837          44.000  
G12  22929811.629                        -433.812          28.000  
G17  23664700.027                       -2301.127          37.000  
R 2  20270833.738                       -1373.815          46.000  
R18  22924454.292                        1629.064          44.000  
G25  24528215.665                         584.191          33.000  
J 2  36248944.772                        -302.515          42.000  
J 4  38014447.642                        -750.855          44.000  
J 7  36823855.041                        -198.181          43.000  
R24  22414816.353                       -1050.378          44.000  
R17  21005039.742                         728.052          45.000  
R 3  20352032.177                        1922.619          44.000  
R 4  24050468.236                        3242.664          38.000  
> 2025  5 19  6  9 31.1010000  0 58                     
G 5  22381515.345                        1589.534          43.000  
G 6  22631473.291                        -969.529          43.000  
G11  22080931.491                         109.164          45.000  
G12  22929819.853                        -562.585          32.000  
G17  23664746.640                       -2955.148          42.000  
J 4  38014463.675                        -965.410          43.000  
C 7  35884598.329                        -413.701          44.000  
C 8  36837283.958                        -767.922          43.000  
C10  36124041.835                        -101.294          42.000  
C13  37240052.854                        -588.674          43.000  
C14  22201539.961                         939.406          44.000  
C33  23704589.358                        2237.510          45.000  
R 2  20270862.015                       -1768.364          48.000  
R18  22924408.610                        2093.705          43.000  
R 1  23801322.274                       -4297.315          30.000  
R24  22414834.610                       -1351.440          43.000  
G20  21091639.987                        -358.069          43.000  
G25  24528188.572                         749.393          34.000  
G19  21397784.469                       -2340.154          45.000  
S37  36823851.976                        -257.115          41.000  
S28  37641671.279                        -254.813          41.000  
R 4  24050373.742                        4166.846          38.000  
R17  21005019.206                         932.953          47.000  
R 3  20351979.946                        2469.722          46.000  
E12                                                                
E19                                                                
E23                                                                
E29                                                                
J 2  36248942.842                        -389.819          42.000  
J 7  36823855.981                        -256.753          37.000  
J 3  39742691.065                         388.131          43.000  
G13  24179154.556                        3238.208          33.000  
G22  25079651.656                       -3290.320          33.000  
G 9  23707610.945                       -2317.678          31.000  
E12                                                                
E19                                                                
E23                                                                
E26                                                                
E29                                                                
C 7  35884594.974                        -319.075          44.000  
C 8  36837280.580                        -592.869          43.000  
C10  36124041.838                         -78.186          43.000  
C13  37240059.121                        -454.924          42.000  
C14  22201540.105                         726.425          47.000  
G 5  22381520.969                        1238.925          38.000  
G 6  22631477.970                        -757.330          45.000  
G11  22080932.980                          84.877          44.000  
G12  22929822.355                        -434.439          29.000  
G17  23664756.300                       -2304.026          39.000  
R 2  20270866.891                       -1376.236          47.000  
R18  22924415.004                        1628.848          44.000  
G25  24528201.350                         585.044          33.000  
J 2  36248952.088                        -302.222          41.000  
J 4  38014466.022                        -752.369          45.000  
J 7  36823859.969                        -200.902          44.000  
R24  22414841.569                       -1051.391          44.000  
R17  21005022.198                         726.898          45.000  
R 3  20351985.941                        1921.916          44.000  
> 2025  5 19  6  9 31.2010000  0 58                     
G 5  22381485.122                        1586.733          42.000  
G 6  22631491.783                        -972.049          45.000  
G11  22080929.451                         106.659          45.000  
G12  22929830.536                        -563.090          32.000  
G17  23664802.871                       -2955.548          41.000  
J 4  38014482.054                        -965.926          42.000  
C 7  35884606.344                        -416.313          43.000  
C 8  36837298.771                        -771.241          43.000  
C10  36124043.775                        -103.674          42.000  
C13  37240064.197                        -592.014          43.000  
C14  22201521.985                         937.424          45.000  
C33  23704546.368                        2235.028          44.000  
R 2  20270895.170                       -1770.509          48.000  
R18  22924369.391                        2092.156          42.000  
R16  23836465.278                        -886.798          19.000  
R 1  23801401.864                       -4296.904          24.000  
R24  22414859.872                       -1351.452          43.000  
G20  21091646.805                        -361.005          43.000  
G25  24528174.338                         747.027          36.000  
G19  21397829.011                       -2340.628          45.000  
S37  36823856.901                        -259.861          41.000  
S28  37641676.190                        -259.019          42.000  
R 4  24050295.927                        4165.729          38.000  
R17  21005001.770                         932.520          48.000  
R 3  20351933.816                        2468.986          44.000  
E12                                                                
E19                                                                
E23                                                                
E29                                                                
J 2  36248950.252                        -391.138          42.000  
J 7  36823860.939                        -259.794          37.000  
J 3  39742683.649                         386.516          43.000  
G13  24179093.028                        3235.315          34.000  
G22  25079708.568                       -3293.763          33.000  
G 9  23707654.908                       -2319.361          31.000  
E12                                                                
E19                                                                
E23                                                                
E26                                                                
E29                                                                
C 7  35884602.940                        -321.991          45.000  
C 8  36837295.363                        -596.034          43.000  
C10  36124043.780                         -79.468          42.000  
C13  37240070.446                        -457.178          42.000  
C14  22201522.118                         724.198          47.000  
G 5  22381490.780                        1235.754          38.000  
G 6  22631496.450                        -757.180          45.000  
G11  22080930.885                          83.753          43.000  
G12  22929833.493                        -438.373          29.000  
G17  23664812.556                       -2303.437          41.000  
R 2  20270900.070                       -1377.105          47.000  
R18  22924375.780                        1627.048          43.000  
G25  24528187.079                         582.872          33.000  
J 2  36248959.592                        -306.506          45.000  
J 4  38014484.419                        -752.393          44.000  
J 7  36823864.872                        -202.356          44.000  
R24  22414866.852                       -1051.480          44.000  
R17  21005004.788                         724.707          46.000  
> 2025  5 19  6  9 31.3010000  0 58                     
G 5  22381454.932                        1585.591          42.000  
G 6  22631510.288                        -972.420          45.000  
G11  22080927.443                         105.287          45.000  
G12  22929841.243                        -564.158          32.000  
G17  23664859.148                       -2956.767          41.000  
J 4  38014500.429                        -966.948          42.000  
C 7  35884614.338                        -416.456          43.000  
C 8  36837313.544                        -771.879          43.000  
C10  36124045.792                        -104.675          42.000  
C13  37240075.529                        -592.278          43.000  
C14  22201503.971                         936.476          45.000  
C33  23704503.443   123435569.4003       2234.996          44.000  
R 2  20270928.367                       -1771.084          48.000  
R18  22924330.198                        2090.791          42.000  
R16  23836483.432                        -886.798          20.000  
R 1  23801482.222                       -4300.891          25.000  
R24  22414885.186                       -1353.104          44.000  
G20  21091653.632                        -361.499          43.000  
G25  24528160.077                         746.501          36.000  
G19  21397873.524                       -2340.934          45.000  
S37  36823861.826   193510699.4823       -259.065          41.000  
S28  37641681.105                        -259.035          42.000  
R 4  24050218.160                        4164.978          40.000  
R17  21004984.340                         932.098          48.000  
R 3  20351887.676                        2468.068          46.000  
E12                                                                
E19                                                                
E23                                                                
E29                                                                
J 2  36248957.658                        -391.431          42.000  
J 7  36823865.795                        -259.136          37.000  
J 3  39742676.291                         385.669          43.000  
G13  24179031.435                        3235.248          36.000  
G22  25079772.367                       -3294.198          33.000  
G 9  23707698.783                       -2318.770          31.000  
E12                                                                
E19                                                                
E23                                                                
E26                                                                
E29                                                                
C 7  35884610.960                        -322.961          46.000  
C 8  36837310.204                        -597.361          44.000  
C10  36124045.796                         -81.506          44.000  
C13  37240081.827                        -458.155          42.000  
C14  22201504.129                         724.618          47.000  
G 5  22381460.589                        1235.563          38.000  
G 6  22631514.953    92672260.987        -757.528          45.000  
G11  22080928.888                          82.298          43.000  
G12  22929844.704                        -439.916          29.000  
G17  23664868.834                       -2303.610          41.000  
R 2  20270933.262    84131900.289       -1376.856          46.000  
R18  22924336.595    95177975.954        1625.454          42.000  
G25  24528172.858                         581.056          33.000  
J 2  36248967.058                        -305.176          45.000  
J 4  38014502.843   155663043.364        -753.527          44.000  
J 7  36823869.776   150787591.159        -201.583          44.000  
R24  22414892.155    93226366.560       -1051.925          44.000  
R17  21004987.358    87423713.001         724.701          46.000  
> 2025  5 19  6  9 31.4010000  0 58                     
G 5  22381424.727                        1584.291          42.000  
G 6  22631528.803                        -972.823          45.000  
G11  22080925.441                         105.269          44.000  
G12  22929851.937                        -566.070          32.000  
G17  23664915.418                       -2956.882          41.000  
J 4  38014518.844   199767641.3741       -968.248          43.000  
C 7  35884622.324                        -418.174          43.000  
C 8  36837328.395                        -772.815          42.000  
C10  36124047.829                        -106.000          42.000  
C13  37240086.885                        -593.551          43.000  
C14  22201485.999                         935.861          45.000  
C33  23704460.508   123435345.9862       2233.631          44.000  
R 2  20270961.545                       -1771.578          48.000  
R18  22924291.063                        2089.451          42.000  
R16  23836501.435                        -886.798          20.000  
R 1  23801562.151                       -4299.375          25.000  
R24  22414910.455                       -1353.135          45.000  
G20  21091660.545                        -362.787          44.000  
G25  24528145.905                         745.515          36.000  
G19  21397918.067                       -2342.434          45.000  
S37  36823866.759   193510725.4142       -259.832          40.000  
S28  37641686.060                        -260.244          42.000  
R 4  24050140.425                        4163.397          40.000  
R17  21004966.891   112401820.9543        931.268          47.000  
R 3  20351841.634                        2465.511          47.000  
E12                                                                
E19                                                                
E23                                                                
E29                                                                
J 2  36248965.154                        -393.353          43.000  
J 7  36823870.707                        -259.336          37.000  
J 3  39742668.968                         384.891          43.000  
G13  24178969.872                        3235.126          37.000  
G22  25079835.545                       -3294.784          36.000  
G 9  23707742.946                       -2319.233          31.000  
E12                                                                
E19                                                                
E23                                                                
E26                                                                
E29                                                                
C 7  35884618.979   144492490.248        -323.120          46.000  
C 8  36837325.004   148328629.549        -597.720          44.000  
C10  36124047.833   145456566.488         -82.214          44.000  
C13  37240093.231   149950415.574        -459.230          42.000  
C14  22201486.147    89396184.663         723.820          45.000  
G 5  22381430.447    91648224.534        1234.096          39.000  
G 6  22631533.457    92672336.778        -758.225          45.000  
G11  22080926.908    90417701.380          81.557          44.000  
G12  22929855.890                        -440.268          29.000  
G17  23664925.157    96903905.156       -2304.660          41.000  
R 2  20270966.487    84132038.069       -1378.262          45.000  
R18  22924297.411    95177813.380        1625.337          42.000  
G25  24528158.640                         580.319          33.000  
J 2  36248974.494                        -305.365          44.000  
J 4  38014521.306   155663118.7911       -754.718          45.000  
J 7  36823874.720   150787611.415        -202.952          44.000  
R24  22414917.477    93226471.747       -1052.145          44.000  
R17  21004969.956    87423640.5671        723.987          46.000  
> 2025  5 19  6  9 31.5010000  0 58                     
G 5  22381394.595                        1583.846          43.000  
G 6  22631547.343   118929575.6631       -973.667          45.000  
G11  22080923.448   116036031.8441        104.571          44.000  
G12  22929862.673                        -566.857          32.000  
G17  23664971.686                       -2957.392          41.000  
J 4  38014537.269   199767738.2101       -968.898          43.000  
C 7  35884630.433   186860689.3491       -418.974          43.000  
C 8  36837343.232   191821713.8741       -773.539          42.000  
C10  36124049.914   188107407.1461       -106.451          42.000  
C13  37240098.292                        -594.155          43.000  
C14  22201468.066   115608872.472         934.525          45.000  
C33  23704417.603   123435122.6152       2233.517          44.000  
R 2  20270994.731   108169910.997       -1772.625          48.000  
R18  22924251.934                        2089.607          42.000  
R16  23836518.698                        -886.798          20.000  
R 1  23801642.797                       -4299.565          25.000  
R24  22414935.779                       -1353.948          45.000  
G20  21091667.427                        -363.733          44.000  
G25  24528131.729   128896202.0993        744.844          36.000  
G19  21397962.670   112447050.824       -2343.259          46.000  
S37  36823871.722   193510751.5442       -261.941          41.000  
S28  37641691.044                        -260.728          42.000  
R 4  24050062.670                        4163.892          40.000  
R17  21004949.503   112401727.8543        930.646          46.000  
R 3  20351795.565                        2466.328          46.000  
E12                                                                
E19                                                                
E23                                                                
E29                                                                
J 2  36248972.621                        -393.231          43.000  
J 7  36823875.729                        -261.719          37.000  
J 3  39742661.630   208849087.584         384.572          43.000  
G13  24178908.316   127061020.2423       3233.832          37.000  
G22  25079896.525                       -3294.851          33.000  
G 9  23707785.374                       -2319.781          31.000  
E12                                                                
E19                                                                
E23                                                                
E26                                                                
E29                                                                
C 7  35884627.000   144492522.5651       -323.399          45.000  
C 8  36837339.863   148328689.3401       -598.230          44.000  
C10  36124049.886   145456574.6811        -82.178          45.000  
C13  37240104.656   149950461.530        -460.022          42.000  
C14  22201468.186    89396112.327         722.987          45.000  
G 5  22381400.307    91648101.128        1233.744          40.000  
G 6  22631551.985    92672412.6081       -758.709          44.000  
G11  22080924.919    90417693.2261         81.244          45.000  
G12  22929867.835                        -440.654          29.000  
G17  23664981.478    96904135.586       -2304.358          41.000  
R 2  20270999.699    84132175.924       -1378.974          45.000  
R18  22924258.250    95177650.827        1625.291          42.000  
G25  24528144.451                         581.272          32.000  
J 2  36248981.974                        -306.592          44.000  
J 4  38014539.738   155663194.1981       -754.257          45.000  
J 7  36823879.711   150787631.712        -203.314          44.000  
R24  22414942.778    93226577.021       -1053.142          45.000  
R17  21004952.554    87423568.1771        723.724          47.000  
> 2025  5 19  6  9 31.6010000  0 58                     
G 5  22381364.480   117614854.4841       1582.496          43.000  
G 6  22631565.860   118929673.0011       -973.420          44.000  
G11  22080921.415   116036021.3971        104.304          44.000  
G12  22929873.486                        -568.433          32.000  
G17  23665027.955   124360571.6221      -2957.441          42.000  
J 4  38014555.690   199767835.0221       -968.252          42.000  
C 7  35884638.493   186860731.2261       -418.966          43.000  
C 8  36837358.091   191821791.2721       -774.294          42.000  
C10  36124051.969   188107417.7991       -106.775          42.000  
C13  37240109.714   193919025.4631       -595.004          43.000  
C14  22201450.110   115608778.988         934.688          45.000  
C33  23704374.708   123434899.3232       2232.448          46.000  
R 2  20271027.941   108170088.263       -1772.857          47.000  
R18  22924212.790   122370985.9561       2088.823          43.000  
R16  23836535.951                        -886.798          20.000  
R 1  23801723.819                       -4300.404          25.000  
R24  22414961.075   119862860.4671      -1353.040          45.000  
G20  21091674.369   110837495.179        -364.691          44.000  
G25  24528117.607   128896127.7642        742.835          34.000  
G19  21398007.208   112447284.980       -2341.550          45.000  
S37  36823876.678   193510777.5782       -260.426          41.000  
S28  37641696.019   197808446.6463       -261.419          42.000  
R 4  24049984.934                        4163.232          40.000  
R17  21004932.111   112401634.8463        929.846          46.000  
R 3  20351749.468                        2466.032          46.000  
E12                                                                
E19                                                                
E23                                                                
E29                                                                
J 2  36248980.068   190489669.8671       -392.505          42.000  
J 7  36823880.672                        -260.431          37.000  
J 3  39742654.326   208849049.119         384.578          43.000  
G13  24178846.760   127060696.7762       3234.808          37.000  
G22  25079959.026                       -3296.098          36.000  
G 9  23707830.675                       -2319.132          31.000  
E12                                                                
E19                                                                
E23                                                                
E26                                                                
E29                                                                
C 7  35884635.001   144492554.9411       -323.943          45.000  
C 8  36837354.750   148328749.2031       -598.895          44.000  
C10  36124051.940   145456582.9401        -82.849          45.000  
C13  37240116.077   149950507.5411       -460.434          43.000  
C14  22201450.229    89396040.050         722.414          47.000  
G 5  22381370.215    91647977.7771       1233.264          40.000  
G 6  22631570.474    92672488.4531       -758.583          42.000  
G11  22080922.940    90417685.1171         80.920          45.000  
G12  22929878.982                        -441.661          29.000  
G17  23665037.756    96904366.0021      -2304.231          41.000  
R 2  20271032.939    84132313.789       -1378.801          45.000  
R18  22924219.128    95177488.3381       1624.682          42.000  
G25  24528130.325                         576.602          28.000  
J 2  36248989.467   148433563.1161       -306.958          44.000  
J 4  38014558.154   155663269.6461       -754.622          45.000  
J 7  36823884.699   150787652.026        -203.348          44.000  
R24  22414968.110    93226682.2931      -1052.744          45.000  
R17  21004935.155    87423495.7681        724.084          47.000  
> 2025  5 19  6  9 31.7010000  0 58                     
G 5  22381334.370   117614696.2251       1582.141          44.000  
G 6  22631584.411   118929770.3211       -973.288          43.000  
G11  22080919.426   116036010.9741        103.984          44.000  
G12  22929884.275                        -565.751          32.000  
G17  23665084.236   124360867.4021      -2957.867          42.000  
J 4  38014574.078   199767931.8411       -968.330          42.000  
C 7  35884646.517   186860773.0911       -418.775          43.000  
C 8  36837372.975   191821868.6711       -774.292          42.000  
C10  36124054.051   188107428.4811       -106.921          42.000  
C13  37240121.147   193919084.9411       -594.934          44.000  
C14  22201432.137   115608685.537         934.387          45.000  
C33  23704331.851   123434676.1082       2231.873          46.000  
R 2  20271061.148   108170265.528       -1772.796          46.000  
R18  22924173.691   122370777.0891       2088.304          43.000  
R16  23836553.243                        -886.798          20.000  
R 1  23801804.373                       -4301.250          25.000  
R24  22414986.400   119862995.8491      -1354.023          45.000  
G20  21091681.298   110837531.582        -363.934          44.000  
G25  24528103.436   128896053.2782        744.405          34.000  
G19  21398051.817   112447519.313       -2343.671          45.000  
S37  36823881.692   193510803.7032       -261.335          41.000  
S28  37641701.014   197808472.7972       -261.764          42.000  
R 4  24049907.201   128786160.270        4162.482          40.000  
R17  21004914.676   112401541.8033        930.438          46.000  
R 3  20351703.426   108944249.372        2464.892          46.000  
E12                                                                
E19                                                                
E23                                                                
E29                                                                
J 2  36248987.585   190489709.2861       -394.629          44.000  
J 7  36823885.642                        -261.659          37.000  
J 3  39742647.010   208849010.654         384.519          43.000  
G13  24178785.164   127060373.3742       3233.850          37.000  
G22  25080020.293                       -3295.171          36.000  
G 9  23707874.800                       -2319.317          31.000  
E12                                                                
E19                                                                
E23                                                                
E26                                                                
E29                                                                
C 7  35884643.063   144492587.3361       -324.094          45.000  
C 8  36837369.608   148328809.0571       -598.567          44.000  
C10  36124053.978   145456591.2011        -82.568          45.000  
C13  37240127.494   149950553.5141       -459.746          43.000  
C14  22201432.304    89395967.809         722.260          48.000  
G 5  22381340.126    91647854.4341       1233.566          38.000  
G 6  22631588.949    92672564.2501       -757.721          41.000  
G11  22080920.968    90417677.0011         81.024          45.000  
G12  22929889.210                        -443.944          29.000  
G17  23665094.048    96904596.4991      -2305.239          41.000  
R 2  20271066.184    84132451.642       -1378.544          45.000  
R18  22924179.990    95177325.8881       1624.104          42.000  
G25  24528116.187                         577.573          28.000  
J 2  36248996.912   148433593.7321       -306.104          42.000  
J 4  38014576.619   155663345.1501       -755.207          45.000  
J 7  36823889.723   150787672.385        -203.657          45.000  
R24  22414993.374    93226787.5051      -1051.847          44.000  
R17  21004917.746    87423423.3711        723.962          46.000  
> 2025  5 19  6  9 31.8010000  0 58                     
G 5  22381304.252   117614537.9791       1582.383          44.000  
G 6  22631602.921   118929867.6291       -973.113          43.000  
G11  22080917.435   116036000.5611        104.018          43.000  
G12  22929895.141                        -567.911          32.000  
G17  23665140.519   124361163.1481      -2957.210          42.000  
J 4  38014592.495   199768028.6651       -967.890          42.000  
C 7  35884654.545   186860814.9671       -418.788          43.000  
C 8  36837387.828   191821946.0991       -774.546          43.000  
C10  36124056.075   188107439.1811       -107.111          43.000  
C13  37240132.595   193919144.4541       -595.325          44.000  
C14  22201414.182   115608592.097         934.357          45.000  
C33  23704288.996   123434452.8512       2232.763          46.000  
R 2  20271094.347   108170442.804       -1772.901          47.000  
R18  22924134.570   122370568.2171       2088.621          44.000  
R16  23836570.084                        -886.798          20.000  
R 1  23801884.991                       -4303.183          25.000  
R24  22415011.709   119863131.1641      -1352.799          45.000  
G20  21091688.214   110837567.975        -363.892          43.000  
G25  24528089.300   128895979.0112        742.336          36.000  
G19  21398096.403   112447753.493       -2341.408          44.000  
S37  36823886.648   193510829.7802       -260.661          41.000  
S28  37641705.987   197808498.9762       -261.865          42.000  
R 4  24049829.489   128785744.010        4163.013          38.000  
R17  21004897.265   112401448.7183        930.865          46.000  
R 3  20351657.387   108944002.816        2465.538          46.000  
E12                                                                
E19                                                                
E23                                                                
E29                                                                
J 2  36248995.048   190489748.5551       -391.980          42.000  
J 7  36823890.604   193510850.1141       -261.813          37.000  
J 3  39742639.691   208848972.188         384.735          43.000  
G13  24178723.628   127060049.9972       3233.801          36.000  
G22  25080083.747   131796743.4392      -3296.710          36.000  
G 9  23707919.478                       -2319.681          31.000  
E12                                                                
E19                                                                
E23                                                                
E26                                                                
E29                                                                
C 7  35884651.102   144492619.7141       -323.698          45.000  
C 8  36837384.469   148328868.8821       -598.287          44.000  
C10  36124056.014   145456599.4411        -82.257          44.000  
C13  37240138.914   149950599.4801       -459.748          43.000  
C14  22201414.379    89395895.535         722.740          48.000  
G 5  22381309.972    91647731.0821       1233.292          38.000  
G 6  22631607.412    92672640.0341       -757.742          40.000  
G11  22080918.995    90417668.9021         80.840          45.000  
G12  22929900.823                        -442.381          29.000  
G17  23665150.366    96904826.9531      -2304.460          41.000  
R 2  20271099.414    84132589.491       -1378.575          45.000  
R18  22924140.880    95177163.5171       1623.456          42.000  
G25  24528102.001                         579.556          32.000  
J 2  36249004.375   148433624.3361       -305.963          42.000  
J 4  38014595.057   155663420.5781       -754.069          44.000  
J 7  36823894.727   150787692.7081       -203.125          45.000  
R24  22415018.655    93226892.7441      -1052.475          45.000  
R17  21004900.340    87423350.9731        723.932          44.000  
> 2025  5 19  6  9 31.9010000  0 58                     
G 5  22381274.159   117614379.7721       1581.822          44.000  
G 6  22631621.427   118929964.9401       -973.102          42.000  
G11  22080915.444   116035990.2011        103.463          44.000  
G12  22929905.931                        -568.163          32.000  
G17  23665196.814   124361458.9051      -2958.050          42.000  
J 4  38014610.871   199768125.4531       -968.228          42.000  
C 7  35884662.594   186860856.8501       -419.034          44.000  
C 8  36837402.717   191822023.5691       -774.740          43.000  
C10  36124058.105   188107449.8811       -107.062          42.000  
C13  37240144.040   193919203.9911       -595.457          44.000  
C14  22201396.212   115608498.634         934.543          44.000  
C33  23704246.113   123434229.6342       2231.952          46.000  
R 2  20271127.574   108170620.062       -1772.529          46.000  
R18  22924095.400   122370359.4581       2087.307          44.000  
R16  23836588.071                        -886.798          20.000  
R 1  23801965.437                       -4301.198          25.000  
R24  22415037.009   119863266.4871      -1353.460          45.000  
G20  21091695.170   110837604.439        -364.911          44.000  
G25  24528075.203   128895904.8372        741.378          36.000  
G19  21398140.969   112447987.736       -2342.541          44.000  
S37  36823891.605   193510855.8672       -260.875          41.000  
S28  37641710.986   197808525.1902       -262.342          43.000  
R 4  24049751.739   128785327.706        4162.683          36.000  
R17  21004879.877   112401355.7043        929.913          46.000  
R 3  20351611.314   108943756.223        2466.030          46.000  
E12                                                                
E19                                                                
E23                                                                
E29                                                                
J 2  36249002.521   190489787.8931       -393.652          43.000  
J 7  36823895.579                        -260.457          38.000  
J 3  39742632.379   208848933.696         384.971          43.000  
G13  24178662.111   127059726.6402       3233.191          37.000  
G22  25080146.145   131797072.9612      -3294.799          36.000  
G 9  23707965.178                       -2319.582          30.000  
E12                                                                
E19                                                                
E23                                                                
E26                                                                
E29                                                                
C 7  35884659.131   144492652.0931       -323.923          45.000  
C 8  36837399.324   148328928.7881       -599.142          44.000  
C10  36124058.077   145456607.7391        -83.228          44.000  
C13  37240150.387   149950645.5331       -460.578          43.000  
C14  22201396.436    89395823.304         722.161          49.000  
G 5  22381279.875    91647607.8131       1232.626          38.000  
G 6  22631625.955    92672715.8751       -758.538          40.000  
G11  22080917.020    90417660.8281         80.690          44.000  
G12  22929911.769                        -441.784          29.000  
G17  23665206.635    96905057.3631      -2304.137          41.000  
R 2  20271132.631    84132727.396       -1379.207          46.000  
R18  22924101.760    95177001.1271       1623.868          44.000  
G25  24528087.923                         577.575          33.000  
J 2  36249011.898   148433654.9881       -306.781          42.000  
J 4  38014613.467   155663495.9761       -754.042          43.000  
J 7  36823899.681   150787713.047        -203.496          45.000  
R24  22415044.005    93226998.0241      -1052.939          45.000  
R17  21004882.984    87423278.6591        722.650          42.000  
> 2025  5 19  6  9 32.0010000  0 58                     
G 5  22381244.044   117614221.5861       1581.440          44.000  
G 6  22631639.970   118930062.3041       -973.947          42.000  
G11  22080913.504   116035979.8661        102.940          44.000  
G12  22929916.785                        -568.821          32.000  
G17  23665253.112   124361754.7031      -2958.034          42.000  
J 4  38014629.310   199768222.3251       -968.704          42.000  
C 7  35884670.653   186860898.7931       -419.746          44.000  
C 8  36837417.569   191822101.0011       -774.650          43.000  
C10  36124060.142   188107460.6291       -107.935          42.000  
C13  37240155.483   193919263.5251       -595.746          44.000  
C14  22201378.266   115608405.240         933.594          44.000  
C33  23704203.238   123434006.4752       2231.298          46.000  
R 2  20271160.807   108170797.411       -1773.851          46.000  
R18  22924056.272   122370150.7341       2086.739          43.000  
R16  23836605.911                        -886.798          20.000  
R 1  23802046.115                       -4302.843          25.000  
R24  22415062.299   119863401.8431      -1353.444          44.000  
G20  21091702.103   110837640.980        -365.930          45.000  
G25  24528061.122   128895830.5552        743.073          37.000  
G19  21398185.557   112448222.022       -2343.132          44.000  
S37  36823896.552   193510881.9552       -261.171          41.000  
S28  37641715.996   197808551.4432       -262.963          44.000  
R 4  24049674.054   128784911.538        4161.322          37.000  
R17  21004862.479   112401262.7313        929.321          46.000  
R 3  20351565.261   108943509.730        2464.588          46.000  
E12                                                                
E19                                                                
E23                                                                
E29                                                                
J 2  36249010.005   190489827.2501       -393.750          42.000  
J 7  36823900.569   193510902.2441       -261.519          37.000  
J 3  39742625.053   208848895.294         383.776          43.000  
G13  24178600.588   127059403.3272       3233.466          37.000  
G22  25080208.649                       -3296.004          33.000  
G 9  23708009.181                       -2319.457          30.000  
E12                                                                
E19                                                                
E23                                                                
E26                                                                
E29                                                                
C 7  35884667.208   144492684.5571       -324.947          46.000  
C 8  36837414.164   148328988.6761       -599.081          44.000  
C10  36124060.121   145456616.0571        -83.374          44.000  
C13  37240161.802   149950691.6181       -461.158          43.000  
C14  22201378.530    89395751.075         722.169          48.000  
G 5  22381249.777    91647484.5531       1232.273          41.000  
G 6  22631644.470    92672791.7481       -759.018          42.000  
G11  22080915.043    90417652.7671         80.323          44.000  
G12  22929923.966                        -443.268          29.000  
G17  23665262.940    96905287.8491      -2304.815          41.000  
R 2  20271165.836    84132865.326       -1379.517          46.000  
R18  22924062.650    95176838.7791       1623.076          44.000  
G25  24528073.808                         578.402          35.000  
J 2  36249019.374   148433685.6301       -306.403          42.000  
J 4  38014631.929   155663571.4751       -755.173          42.000  
J 7  36823904.631   150787733.3951       -203.540          44.000  
R24  22415069.292    93227103.2481      -1052.056          44.000  
R17  21004865.640    87423206.4231        722.070          42.000  
> 2025  5 19  6  9 32.1010000  0 58                     
G 5  22381213.950   117614063.4851       1580.858          44.000  
G 6  22631658.518   118930159.6991       -974.277          43.000  
G11  22080911.529   116035969.6111        102.342          44.000  
G12  22929927.583                        -569.633          32.000  
G17  23665309.379   124362050.3981      -2956.686          42.000  
J 4  38014647.753   199768319.1791       -968.962          42.000  
C 7  35884678.719   186860940.7831       -420.184          44.000  
C 8  36837432.481   191822178.6211       -776.561          43.000  
C10  36124062.208   188107471.4581       -108.588          42.000  
C13  37240166.953   193919323.2181       -597.274          44.000  
C14  22201360.296   115608311.900         933.168          45.000  
C33  23704160.393   123433783.3262       2231.401          46.000  
R 2  20271194.062   108170974.756       -1773.677          47.000  
R18  22924017.166   122369942.0441       2087.052          43.000  
R16  23836622.748                        -886.798          20.000  
R 1  23802126.033                       -4305.187          25.000  
R24  22415087.611   119863537.1481      -1353.212          44.000  
G20  21091709.098   110837677.606        -366.449          45.000  
G25  24528047.034   128895756.4082        741.368          37.000  
G19  21398230.134   112448456.276       -2342.593          44.000  
S37  36823901.532   193510908.1042       -261.805          41.000  
S28  37641721.007   197808577.7602       -263.234          43.000  
R 4  24049596.361   128784495.323        4161.774          37.000  
R17  21004845.130   112401169.8703        927.966          45.000  
R 3  20351519.206   108943263.273        2464.324          46.000  
E12                                                                
E19                                                                
E23                                                                
E29                                                                
J 2  36249017.489   190489866.5851       -393.146          42.000  
J 7  36823905.507   193510928.3721       -261.417          37.000  
J 3  39742617.750   208848856.885         383.911          43.000  
G13  24178539.028   127059079.8702       3234.393          35.000  
G22  25080271.050   131797732.1762      -3296.943          33.000  
G 9  23708054.328                       -2322.894          31.000  
E12                                                                
E19                                                                
E23                                                                
E26                                                                
E29                                                                
C 7  35884675.269   144492717.0251       -324.806          46.000  
C 8  36837429.059   148329048.6511       -600.034          44.000  
C10  36124062.181   145456624.4181        -83.765          44.000  
C13  37240173.269   149950737.7451       -461.295          43.000  
C14  22201360.602    89395678.884         721.740          48.000  
G 5  22381219.712    91647361.4041       1231.304          41.000  
G 6  22631662.983    92672867.6361       -759.177          42.000  
G11  22080913.075    90417644.7701         79.672          43.000  
G12  22929935.673                        -444.057          29.000  
G17  23665319.232    96905518.3211      -2305.001          41.000  
R 2  20271199.090    84133003.304       -1379.976          45.000  
R18  22924023.537    95176676.5031       1622.688          45.000  
G25  24528059.707                         577.174          36.000  
J 2  36249026.885   148433716.3031       -306.738          42.000  
J 4  38014650.328   155663646.9331       -754.733          41.000  
J 7  36823909.591   150787753.7431       -203.737          43.000  
R24  22415094.622    93227208.5491      -1053.310          45.000  
R17  21004848.246    87423134.0811        723.535          45.000  
> 2025  5 19  6  9 32.2010000  0 58                     
G 5  22381183.834   117613905.3331       1581.396          44.000  
G 6  22631677.079   118930257.2201       -975.726          43.000  
G11  22080909.555   116035959.4111        101.469          44.000  
G12  22929938.434                        -570.134          32.000  
G17  23665365.671   124362346.2271      -2958.623          42.000  
J 4  38014666.234   199768416.1511       -970.205          42.000  
C 7  35884686.766   186860982.8221       -420.685          44.000  
C 8  36837447.403   191822256.2121       -776.005          43.000  
C10  36124064.297   188107482.3111       -108.789          42.000  
C13  37240178.418   193919382.8591       -596.360          45.000  
C14  22201342.380   115608218.559         933.233          45.000  
C33  23704117.552   123433560.1332       2232.065          46.000  
R 2  20271227.290   108171152.280       -1775.847          47.000  
R18  22923978.061   122369733.4281       2085.674          41.000  
R16  23836639.706                        -886.798          20.000  
R 1  23802206.371                       -4303.312          25.000  
R24  22415112.944   119863672.6591      -1355.834          45.000  
G20  21091716.086   110837714.171        -365.771          44.000  
G25  24528032.938                         739.926          34.000  
G19  21398274.753   112448690.623       -2343.884          44.000  
S37  36823906.510   193510934.3072       -262.419          41.000  
S28  37641725.964   197808603.9682       -262.123          43.000  
R 4  24049518.656   128784079.082        4162.830          37.000  
R17  21004827.793   112401077.0453        928.320          48.000  
R 3  20351473.187   108943016.780        2464.941          46.000  
E12                                                                
E19                                                                
E23                                                                
E29                                                                
J 2  36249024.998   190489905.9481       -393.854          42.000  
J 7  36823910.554   193510954.5881       -262.657          37.000  
J 3  39742610.449   208848818.590         382.463          43.000  
G13  24178477.471   127058756.4302       3235.022          34.000  
G22  25080332.019                       -3293.093          33.000  
G 9  23708097.871                       -2320.511          30.000  
E12                                                                
E19                                                                
E23                                                                
E26                                                                
E29                                                                
C 7  35884683.323   144492749.5041       -325.004          46.000  
C 8  36837443.952   148329108.6671       -600.427          45.000  
C10  36124064.238   145456632.7961        -83.917          44.000  
C13  37240184.716   149950783.8451       -460.982          43.000  
C14  22201342.690    89395606.732         721.309          48.000  
G 5  22381189.618    91647238.1281       1233.095          41.000  
G 6  22631681.545    92672943.6621       -760.774          42.000  
G11  22080911.119    90417636.8041         79.467          43.000  
G12  22929946.120                        -445.080          29.000  
G17  23665375.513    96905748.7331      -2304.001          39.000  
R 2  20271232.328    84133141.350       -1380.803          45.000  
R18  22923984.395    95176514.1691       1623.232          45.000  
R16  23836882.152                        -689.977          23.000  
G25  24528045.533                         578.652          36.000  
J 2  36249034.327   148433746.8911       -305.890          41.000  
J 4  38014668.751   155663722.4801       -755.951          42.000  
J 7  36823914.609   150787774.1551       -204.303          43.000  
R24  22415119.976    93227313.8871      -1053.462          45.000  
> 2025  5 19  6  9 32.3010000  0 58                     
G 5  22381153.773   117613747.2861       1579.926          44.000  
G 6  22631695.642   118930354.7871       -976.144          42.000  
G11  22080907.630   116035949.3511        100.061          45.000  
G12  22929949.319                        -572.223          32.000  
G17  23665421.955   124362641.9791      -2957.141          42.000  
J 4  38014684.707   199768513.1511       -970.065          42.000  
C 7  35884694.823   186861024.9341       -421.418          44.000  
C 8  36837462.303   191822333.8741       -777.079          43.000  
C10  36124066.381   188107493.2681       -110.089          43.000  
C13  37240189.910   193919442.5981       -598.022          45.000  
C14  22201324.478   115608125.307         932.209          45.000  
C33  23704074.686   123433336.5271       2230.592          46.000  
R 2  20271260.579   108171329.829       -1775.691          47.000  
R18  22923939.013   122369525.0081       2083.780          41.000  
R16  23836656.767                        -886.798          20.000  
R 1  23802286.834                       -4302.700          25.000  
R24  22415138.277   119863808.1181      -1354.557          44.000  
G20  21091723.063   110837750.921        -368.121          44.000  
G25  24528018.813                         740.578          37.000  
G19  21398319.392   112448925.037       -2344.334          44.000  
S37  36823911.495   193510960.5122       -262.163          40.000  
S28  37641730.957   197808630.3252       -263.977          44.000  
R 4  24049440.925   128783662.746        4162.988          36.000  
R17  21004810.447   112400984.3072        926.520          47.000  
R 3  20351427.182   108942770.406        2463.160          46.000  
E12                                                                
E19                                                                
E23                                                                
E29                                                                
J 2  36249032.502   190489945.3081       -393.939          41.000  
J 7  36823915.501   193510980.7831       -262.133          37.000  
J 3  39742603.200   208848780.387         381.771          43.000  
G13  24178415.911   127058433.1172       3232.416          37.000  
G22  25080393.727                       -3296.074          33.000  
G 9  23708141.891                       -2321.481          30.000  
E12                                                                
E19                                                                
E23                                                                
E26                                                                
E29                                                                
C 7  35884691.415   144492782.0811       -326.169          46.000  
C 8  36837458.877   148329168.7561       -601.315          45.000  
C10  36124066.341   145456641.2731        -85.229          44.000  
C13  37240196.194   149950830.0561       -462.470          43.000  
C14  22201324.778    89395534.629         720.775          47.000  
G 5  22381159.522    91647114.9581       1231.261          41.000  
G 6  22631700.102    92673019.6691       -760.041          42.000  
G11  22080909.171    90417628.9481         78.048          43.000  
G12  22929957.976                        -443.424          29.000  
G17  23665431.806    96905979.2701      -2305.526          40.000  
R 2  20271265.624    84133279.456       -1381.360          46.000  
R18  22923945.374    95176352.0411       1620.852          45.000  
R16  23836898.119                        -699.036          23.000  
G25  24528031.455                         575.715          36.000  
J 2  36249041.888   148433777.6701       -308.356          42.000  
J 4  38014687.232   155663798.0821       -756.353          42.000  
J 7  36823919.581   150787794.5681       -204.263          43.000  
R24  22415145.322    93227419.2491      -1053.814          45.000  
> 2025  5 19  6  9 32.4010000  0 58                     
G 5  22381123.724   117613589.3971       1578.420          44.000  
G 6  22631714.207   118930452.3991       -976.223          43.000  
G11  22080905.735   116035939.3641         99.390          46.000  
G12  22929960.251                        -571.627          32.000  
G17  23665478.261   124362937.7181      -2957.431          42.000  
J 4  38014703.131   199768610.1141       -969.849          42.000  
C 7  35884702.951   186861067.0751       -421.666          44.000  
C 8  36837477.190   191822411.6711       -778.207          43.000  
C10  36124068.506   188107504.2881       -110.321          42.000  
C13  37240201.408   193919502.4781       -599.347          45.000  
C14  22201306.585   115608032.090         931.832          45.000  
C33  23704031.832   123433113.431        2231.020          45.000  
R 2  20271293.866   108171507.439       -1776.526          47.000  
R18  22923899.916   122369316.5091       2084.383          43.000  
R 1  23802365.702                       -4314.588          25.000  
R24  22415163.586   119863943.4951      -1354.216          45.000  
G20  21091730.096   110837787.767        -368.842          44.000  
G25  24528004.772                         738.128          37.000  
G19  21398363.982   112449159.361       -2343.524          44.000  
S37  36823916.484   193510986.7252       -262.467          40.000  
S28  37641736.003   197808656.7432       -264.426          44.000  
R 4  24049363.215   128783246.573        4161.481          36.000  
R17  21004793.150   112400891.6313        926.752          48.000  
R 3  20351381.161   108942524.031        2463.853          45.000  
E12                                                                
E19                                                                
E23                                                                
E29                                                                
J 2  36249040.009   190489984.6811       -393.726          41.000  
J 7  36823920.478   193511006.9971       -262.466          37.000  
J 3  39742595.922   208848742.144         382.399          43.000  
G13  24178354.384   127058109.6992       3234.650          34.000  
G22  25080455.872                       -3293.990          33.000  
G 9  23708185.019                       -2323.172          30.000  
E12                                                                
E19                                                                
E23                                                                
E26                                                                
E29                                                                
C 7  35884699.541   144492814.6611       -325.879          46.000  
C 8  36837473.801   148329228.9041       -601.580          45.000  
C10  36124068.480   145456649.7981        -85.455          45.000  
C13  37240207.686   149950876.3371       -463.181          43.000  
C14  22201306.861    89395462.546         720.616          47.000  
G 5  22381129.496    91646991.9341       1229.600          41.000  
G 6  22631718.696    92673095.6601       -760.024          42.000  
G11  22080907.253    90417621.2161         77.009          42.000  
G12  22929967.882                        -446.281          33.000  
G17  23665488.082    96906209.6901      -2304.631          39.000  
R 2  20271298.928    84133417.586       -1381.606          47.000  
R18  22923906.319    95176189.8911       1621.297          46.000  
R16  23836914.874                        -698.713          24.000  
G25  24528017.377                         575.962          36.000  
J 2  36249049.378   148433808.3001       -306.207          41.000  
J 4  38014705.666   155663873.6461       -755.823          42.000  
J 7  36823924.606   150787815.0531       -204.841          44.000  
R24  22415170.641    93227524.5831      -1053.264          45.000  
R17  21004796.283    87422917.6691        721.942          46.000  
